stop_id,stop_name,trip_id,arrival_time,departure_time,stop_sequence,route_id,shape_dist_traveled
81,Botanical Garden,15351,06:00:00,06:00:20,0,upward,0.0
161,Okhla Bird Sanctuary,15351,06:03:52,06:04:12,1,upward,2003.493
162,Kalindi Kunj,15351,06:06:47,06:07:07,2,upward,3589.032
163,Jasola Vihar Shaheen Bagh,15351,06:10:19,06:10:39,3,upward,5593.097
164,Okhla Vihar,15351,06:13:40,06:14:00,4,upward,7428.589
165,Jamia Millia Islamia,15351,06:16:27,06:16:47,5,upward,8372.665
166,Sukhdev Vihar,15351,06:19:20,06:19:40,6,upward,9604.107
167,Okhla NSIC,15351,06:21:58,06:22:18,7,upward,10754.323
131,Kalkaji Mandir,15351,06:24:15,06:24:35,8,upward,11547.502
182,Nehru Enclave,15351,06:26:11,06:26:31,9,upward,12378.613
183,Greater Kailash,15351,06:28:50,06:29:10,10,upward,13737.647
184,Chirag Delhi,15351,06:30:55,06:31:15,11,upward,14563.604
185,Panchsheel Park,15351,06:32:59,06:33:19,12,upward,15478.074
59,Hauz Khas,15351,06:35:48,06:36:08,13,upward,16891.973
81,Botanical Garden,15352,06:06:45,06:07:05,0,upward,0.0
161,Okhla Bird Sanctuary,15352,06:10:37,06:10:57,1,upward,2003.493
162,Kalindi Kunj,15352,06:13:32,06:13:52,2,upward,3589.032
163,Jasola Vihar Shaheen Bagh,15352,06:17:04,06:17:24,3,upward,5593.097
164,Okhla Vihar,15352,06:20:25,06:20:45,4,upward,7428.589
165,Jamia Millia Islamia,15352,06:23:12,06:23:32,5,upward,8372.665
166,Sukhdev Vihar,15352,06:26:05,06:26:25,6,upward,9604.107
167,Okhla NSIC,15352,06:28:43,06:29:03,7,upward,10754.323
131,Kalkaji Mandir,15352,06:31:00,06:31:20,8,upward,11547.502
182,Nehru Enclave,15352,06:32:56,06:33:16,9,upward,12378.613
183,Greater Kailash,15352,06:35:35,06:35:55,10,upward,13737.647
184,Chirag Delhi,15352,06:37:40,06:38:00,11,upward,14563.604
185,Panchsheel Park,15352,06:39:44,06:40:04,12,upward,15478.074
59,Hauz Khas,15352,06:42:33,06:42:53,13,upward,16891.973
81,Botanical Garden,15353,06:13:30,06:13:50,0,upward,0.0
161,Okhla Bird Sanctuary,15353,06:17:22,06:17:42,1,upward,2003.493
162,Kalindi Kunj,15353,06:20:17,06:20:37,2,upward,3589.032
163,Jasola Vihar Shaheen Bagh,15353,06:23:49,06:24:09,3,upward,5593.097
164,Okhla Vihar,15353,06:27:10,06:27:30,4,upward,7428.589
165,Jamia Millia Islamia,15353,06:29:57,06:30:17,5,upward,8372.665
166,Sukhdev Vihar,15353,06:32:50,06:33:10,6,upward,9604.107
167,Okhla NSIC,15353,06:35:28,06:35:48,7,upward,10754.323
131,Kalkaji Mandir,15353,06:37:45,06:38:05,8,upward,11547.502
182,Nehru Enclave,15353,06:39:41,06:40:01,9,upward,12378.613
183,Greater Kailash,15353,06:42:20,06:42:40,10,upward,13737.647
184,Chirag Delhi,15353,06:44:25,06:44:45,11,upward,14563.604
185,Panchsheel Park,15353,06:46:29,06:46:49,12,upward,15478.074
59,Hauz Khas,15353,06:49:18,06:49:38,13,upward,16891.973
81,Botanical Garden,15354,06:20:15,06:20:35,0,upward,0.0
161,Okhla Bird Sanctuary,15354,06:24:07,06:24:27,1,upward,2003.493
162,Kalindi Kunj,15354,06:27:02,06:27:22,2,upward,3589.032
163,Jasola Vihar Shaheen Bagh,15354,06:30:34,06:30:54,3,upward,5593.097
164,Okhla Vihar,15354,06:33:55,06:34:15,4,upward,7428.589
165,Jamia Millia Islamia,15354,06:36:42,06:37:02,5,upward,8372.665
166,Sukhdev Vihar,15354,06:39:35,06:39:55,6,upward,9604.107
167,Okhla NSIC,15354,06:42:13,06:42:33,7,upward,10754.323
131,Kalkaji Mandir,15354,06:44:30,06:44:50,8,upward,11547.502
182,Nehru Enclave,15354,06:46:26,06:46:46,9,upward,12378.613
183,Greater Kailash,15354,06:49:05,06:49:25,10,upward,13737.647
184,Chirag Delhi,15354,06:51:10,06:51:30,11,upward,14563.604
185,Panchsheel Park,15354,06:53:14,06:53:34,12,upward,15478.074
59,Hauz Khas,15354,06:56:03,06:56:23,13,upward,16891.973
81,Botanical Garden,15355,06:27:00,06:27:20,0,upward,0.0
161,Okhla Bird Sanctuary,15355,06:30:52,06:31:12,1,upward,2003.493
162,Kalindi Kunj,15355,06:33:47,06:34:07,2,upward,3589.032
163,Jasola Vihar Shaheen Bagh,15355,06:37:19,06:37:39,3,upward,5593.097
164,Okhla Vihar,15355,06:40:40,06:41:00,4,upward,7428.589
165,Jamia Millia Islamia,15355,06:43:27,06:43:47,5,upward,8372.665
166,Sukhdev Vihar,15355,06:46:20,06:46:40,6,upward,9604.107
167,Okhla NSIC,15355,06:48:58,06:49:18,7,upward,10754.323
131,Kalkaji Mandir,15355,06:51:15,06:51:35,8,upward,11547.502
182,Nehru Enclave,15355,06:53:11,06:53:31,9,upward,12378.613
183,Greater Kailash,15355,06:55:50,06:56:10,10,upward,13737.647
184,Chirag Delhi,15355,06:57:55,06:58:15,11,upward,14563.604
185,Panchsheel Park,15355,06:59:59,07:00:19,12,upward,15478.074
59,Hauz Khas,15355,07:02:48,07:03:08,13,upward,16891.973
81,Botanical Garden,15356,06:33:45,06:34:05,0,upward,0.0
161,Okhla Bird Sanctuary,15356,06:37:37,06:37:57,1,upward,2003.493
162,Kalindi Kunj,15356,06:40:32,06:40:52,2,upward,3589.032
163,Jasola Vihar Shaheen Bagh,15356,06:44:04,06:44:24,3,upward,5593.097
164,Okhla Vihar,15356,06:47:25,06:47:45,4,upward,7428.589
165,Jamia Millia Islamia,15356,06:50:12,06:50:32,5,upward,8372.665
166,Sukhdev Vihar,15356,06:53:05,06:53:25,6,upward,9604.107
167,Okhla NSIC,15356,06:55:43,06:56:03,7,upward,10754.323
131,Kalkaji Mandir,15356,06:58:00,06:58:20,8,upward,11547.502
182,Nehru Enclave,15356,06:59:56,07:00:16,9,upward,12378.613
183,Greater Kailash,15356,07:02:35,07:02:55,10,upward,13737.647
184,Chirag Delhi,15356,07:04:40,07:05:00,11,upward,14563.604
185,Panchsheel Park,15356,07:06:44,07:07:04,12,upward,15478.074
59,Hauz Khas,15356,07:09:33,07:09:53,13,upward,16891.973
81,Botanical Garden,15357,06:40:30,06:40:50,0,upward,0.0
161,Okhla Bird Sanctuary,15357,06:44:22,06:44:42,1,upward,2003.493
162,Kalindi Kunj,15357,06:47:17,06:47:37,2,upward,3589.032
163,Jasola Vihar Shaheen Bagh,15357,06:50:49,06:51:09,3,upward,5593.097
164,Okhla Vihar,15357,06:54:10,06:54:30,4,upward,7428.589
165,Jamia Millia Islamia,15357,06:56:57,06:57:17,5,upward,8372.665
166,Sukhdev Vihar,15357,06:59:50,07:00:10,6,upward,9604.107
167,Okhla NSIC,15357,07:02:28,07:02:48,7,upward,10754.323
131,Kalkaji Mandir,15357,07:04:45,07:05:05,8,upward,11547.502
182,Nehru Enclave,15357,07:06:41,07:07:01,9,upward,12378.613
183,Greater Kailash,15357,07:09:20,07:09:40,10,upward,13737.647
184,Chirag Delhi,15357,07:11:25,07:11:45,11,upward,14563.604
185,Panchsheel Park,15357,07:13:29,07:13:49,12,upward,15478.074
59,Hauz Khas,15357,07:16:18,07:16:38,13,upward,16891.973
81,Botanical Garden,15358,06:47:15,06:47:35,0,upward,0.0
161,Okhla Bird Sanctuary,15358,06:51:07,06:51:27,1,upward,2003.493
162,Kalindi Kunj,15358,06:54:02,06:54:22,2,upward,3589.032
163,Jasola Vihar Shaheen Bagh,15358,06:57:34,06:57:54,3,upward,5593.097
164,Okhla Vihar,15358,07:00:55,07:01:15,4,upward,7428.589
165,Jamia Millia Islamia,15358,07:03:42,07:04:02,5,upward,8372.665
166,Sukhdev Vihar,15358,07:06:35,07:06:55,6,upward,9604.107
167,Okhla NSIC,15358,07:09:13,07:09:33,7,upward,10754.323
131,Kalkaji Mandir,15358,07:11:30,07:11:50,8,upward,11547.502
182,Nehru Enclave,15358,07:13:26,07:13:46,9,upward,12378.613
183,Greater Kailash,15358,07:16:05,07:16:25,10,upward,13737.647
184,Chirag Delhi,15358,07:18:10,07:18:30,11,upward,14563.604
185,Panchsheel Park,15358,07:20:14,07:20:34,12,upward,15478.074
59,Hauz Khas,15358,07:23:03,07:23:23,13,upward,16891.973
81,Botanical Garden,15359,06:54:00,06:54:20,0,upward,0.0
161,Okhla Bird Sanctuary,15359,06:57:52,06:58:12,1,upward,2003.493
162,Kalindi Kunj,15359,07:00:47,07:01:07,2,upward,3589.032
163,Jasola Vihar Shaheen Bagh,15359,07:04:19,07:04:39,3,upward,5593.097
164,Okhla Vihar,15359,07:07:40,07:08:00,4,upward,7428.589
165,Jamia Millia Islamia,15359,07:10:27,07:10:47,5,upward,8372.665
166,Sukhdev Vihar,15359,07:13:20,07:13:40,6,upward,9604.107
167,Okhla NSIC,15359,07:15:58,07:16:18,7,upward,10754.323
131,Kalkaji Mandir,15359,07:18:15,07:18:35,8,upward,11547.502
182,Nehru Enclave,15359,07:20:11,07:20:31,9,upward,12378.613
183,Greater Kailash,15359,07:22:50,07:23:10,10,upward,13737.647
184,Chirag Delhi,15359,07:24:55,07:25:15,11,upward,14563.604
185,Panchsheel Park,15359,07:26:59,07:27:19,12,upward,15478.074
59,Hauz Khas,15359,07:29:48,07:30:08,13,upward,16891.973
81,Botanical Garden,15360,07:00:45,07:01:05,0,upward,0.0
161,Okhla Bird Sanctuary,15360,07:04:37,07:04:57,1,upward,2003.493
162,Kalindi Kunj,15360,07:07:32,07:07:52,2,upward,3589.032
163,Jasola Vihar Shaheen Bagh,15360,07:11:04,07:11:24,3,upward,5593.097
164,Okhla Vihar,15360,07:14:25,07:14:45,4,upward,7428.589
165,Jamia Millia Islamia,15360,07:17:12,07:17:32,5,upward,8372.665
166,Sukhdev Vihar,15360,07:20:05,07:20:25,6,upward,9604.107
167,Okhla NSIC,15360,07:22:43,07:23:03,7,upward,10754.323
131,Kalkaji Mandir,15360,07:25:00,07:25:20,8,upward,11547.502
182,Nehru Enclave,15360,07:26:56,07:27:16,9,upward,12378.613
183,Greater Kailash,15360,07:29:35,07:29:55,10,upward,13737.647
184,Chirag Delhi,15360,07:31:40,07:32:00,11,upward,14563.604
185,Panchsheel Park,15360,07:33:44,07:34:04,12,upward,15478.074
59,Hauz Khas,15360,07:36:33,07:36:53,13,upward,16891.973
81,Botanical Garden,15361,07:07:30,07:07:50,0,upward,0.0
161,Okhla Bird Sanctuary,15361,07:11:22,07:11:42,1,upward,2003.493
162,Kalindi Kunj,15361,07:14:17,07:14:37,2,upward,3589.032
163,Jasola Vihar Shaheen Bagh,15361,07:17:49,07:18:09,3,upward,5593.097
164,Okhla Vihar,15361,07:21:10,07:21:30,4,upward,7428.589
165,Jamia Millia Islamia,15361,07:23:57,07:24:17,5,upward,8372.665
166,Sukhdev Vihar,15361,07:26:50,07:27:10,6,upward,9604.107
167,Okhla NSIC,15361,07:29:28,07:29:48,7,upward,10754.323
131,Kalkaji Mandir,15361,07:31:45,07:32:05,8,upward,11547.502
182,Nehru Enclave,15361,07:33:41,07:34:01,9,upward,12378.613
183,Greater Kailash,15361,07:36:20,07:36:40,10,upward,13737.647
184,Chirag Delhi,15361,07:38:25,07:38:45,11,upward,14563.604
185,Panchsheel Park,15361,07:40:29,07:40:49,12,upward,15478.074
59,Hauz Khas,15361,07:43:18,07:43:38,13,upward,16891.973
81,Botanical Garden,15362,07:14:15,07:14:35,0,upward,0.0
161,Okhla Bird Sanctuary,15362,07:18:07,07:18:27,1,upward,2003.493
162,Kalindi Kunj,15362,07:21:02,07:21:22,2,upward,3589.032
163,Jasola Vihar Shaheen Bagh,15362,07:24:34,07:24:54,3,upward,5593.097
164,Okhla Vihar,15362,07:27:55,07:28:15,4,upward,7428.589
165,Jamia Millia Islamia,15362,07:30:42,07:31:02,5,upward,8372.665
166,Sukhdev Vihar,15362,07:33:35,07:33:55,6,upward,9604.107
167,Okhla NSIC,15362,07:36:13,07:36:33,7,upward,10754.323
131,Kalkaji Mandir,15362,07:38:30,07:38:50,8,upward,11547.502
182,Nehru Enclave,15362,07:40:26,07:40:46,9,upward,12378.613
183,Greater Kailash,15362,07:43:05,07:43:25,10,upward,13737.647
184,Chirag Delhi,15362,07:45:10,07:45:30,11,upward,14563.604
185,Panchsheel Park,15362,07:47:14,07:47:34,12,upward,15478.074
59,Hauz Khas,15362,07:50:03,07:50:23,13,upward,16891.973
81,Botanical Garden,15363,07:21:00,07:21:20,0,upward,0.0
161,Okhla Bird Sanctuary,15363,07:24:52,07:25:12,1,upward,2003.493
162,Kalindi Kunj,15363,07:27:47,07:28:07,2,upward,3589.032
163,Jasola Vihar Shaheen Bagh,15363,07:31:19,07:31:39,3,upward,5593.097
164,Okhla Vihar,15363,07:34:40,07:35:00,4,upward,7428.589
165,Jamia Millia Islamia,15363,07:37:27,07:37:47,5,upward,8372.665
166,Sukhdev Vihar,15363,07:40:20,07:40:40,6,upward,9604.107
167,Okhla NSIC,15363,07:42:58,07:43:18,7,upward,10754.323
131,Kalkaji Mandir,15363,07:45:15,07:45:35,8,upward,11547.502
182,Nehru Enclave,15363,07:47:11,07:47:31,9,upward,12378.613
183,Greater Kailash,15363,07:49:50,07:50:10,10,upward,13737.647
184,Chirag Delhi,15363,07:51:55,07:52:15,11,upward,14563.604
185,Panchsheel Park,15363,07:53:59,07:54:19,12,upward,15478.074
59,Hauz Khas,15363,07:56:48,07:57:08,13,upward,16891.973
81,Botanical Garden,15364,07:27:45,07:28:05,0,upward,0.0
161,Okhla Bird Sanctuary,15364,07:31:37,07:31:57,1,upward,2003.493
162,Kalindi Kunj,15364,07:34:32,07:34:52,2,upward,3589.032
163,Jasola Vihar Shaheen Bagh,15364,07:38:04,07:38:24,3,upward,5593.097
164,Okhla Vihar,15364,07:41:25,07:41:45,4,upward,7428.589
165,Jamia Millia Islamia,15364,07:44:12,07:44:32,5,upward,8372.665
166,Sukhdev Vihar,15364,07:47:05,07:47:25,6,upward,9604.107
167,Okhla NSIC,15364,07:49:43,07:50:03,7,upward,10754.323
131,Kalkaji Mandir,15364,07:52:00,07:52:20,8,upward,11547.502
182,Nehru Enclave,15364,07:53:56,07:54:16,9,upward,12378.613
183,Greater Kailash,15364,07:56:35,07:56:55,10,upward,13737.647
184,Chirag Delhi,15364,07:58:40,07:59:00,11,upward,14563.604
185,Panchsheel Park,15364,08:00:44,08:01:04,12,upward,15478.074
59,Hauz Khas,15364,08:03:33,08:03:53,13,upward,16891.973
81,Botanical Garden,15365,07:34:30,07:34:50,0,upward,0.0
161,Okhla Bird Sanctuary,15365,07:38:22,07:38:42,1,upward,2003.493
162,Kalindi Kunj,15365,07:41:17,07:41:37,2,upward,3589.032
163,Jasola Vihar Shaheen Bagh,15365,07:44:49,07:45:09,3,upward,5593.097
164,Okhla Vihar,15365,07:48:10,07:48:30,4,upward,7428.589
165,Jamia Millia Islamia,15365,07:50:57,07:51:17,5,upward,8372.665
166,Sukhdev Vihar,15365,07:53:50,07:54:10,6,upward,9604.107
167,Okhla NSIC,15365,07:56:28,07:56:48,7,upward,10754.323
131,Kalkaji Mandir,15365,07:58:45,07:59:05,8,upward,11547.502
182,Nehru Enclave,15365,08:00:41,08:01:01,9,upward,12378.613
183,Greater Kailash,15365,08:03:20,08:03:40,10,upward,13737.647
184,Chirag Delhi,15365,08:05:25,08:05:45,11,upward,14563.604
185,Panchsheel Park,15365,08:07:29,08:07:49,12,upward,15478.074
59,Hauz Khas,15365,08:10:18,08:10:38,13,upward,16891.973
81,Botanical Garden,15366,07:41:15,07:41:35,0,upward,0.0
161,Okhla Bird Sanctuary,15366,07:45:07,07:45:27,1,upward,2003.493
162,Kalindi Kunj,15366,07:48:02,07:48:22,2,upward,3589.032
163,Jasola Vihar Shaheen Bagh,15366,07:51:34,07:51:54,3,upward,5593.097
164,Okhla Vihar,15366,07:54:55,07:55:15,4,upward,7428.589
165,Jamia Millia Islamia,15366,07:57:42,07:58:02,5,upward,8372.665
166,Sukhdev Vihar,15366,08:00:35,08:00:55,6,upward,9604.107
167,Okhla NSIC,15366,08:03:13,08:03:33,7,upward,10754.323
131,Kalkaji Mandir,15366,08:05:30,08:05:50,8,upward,11547.502
182,Nehru Enclave,15366,08:07:26,08:07:46,9,upward,12378.613
183,Greater Kailash,15366,08:10:05,08:10:25,10,upward,13737.647
184,Chirag Delhi,15366,08:12:10,08:12:30,11,upward,14563.604
185,Panchsheel Park,15366,08:14:14,08:14:34,12,upward,15478.074
59,Hauz Khas,15366,08:17:03,08:17:23,13,upward,16891.973
81,Botanical Garden,15367,07:48:00,07:48:20,0,upward,0.0
161,Okhla Bird Sanctuary,15367,07:51:52,07:52:12,1,upward,2003.493
162,Kalindi Kunj,15367,07:54:47,07:55:07,2,upward,3589.032
163,Jasola Vihar Shaheen Bagh,15367,07:58:19,07:58:39,3,upward,5593.097
164,Okhla Vihar,15367,08:01:40,08:02:00,4,upward,7428.589
165,Jamia Millia Islamia,15367,08:04:27,08:04:47,5,upward,8372.665
166,Sukhdev Vihar,15367,08:07:20,08:07:40,6,upward,9604.107
167,Okhla NSIC,15367,08:09:58,08:10:18,7,upward,10754.323
131,Kalkaji Mandir,15367,08:12:15,08:12:35,8,upward,11547.502
182,Nehru Enclave,15367,08:14:11,08:14:31,9,upward,12378.613
183,Greater Kailash,15367,08:16:50,08:17:10,10,upward,13737.647
184,Chirag Delhi,15367,08:18:55,08:19:15,11,upward,14563.604
185,Panchsheel Park,15367,08:20:59,08:21:19,12,upward,15478.074
59,Hauz Khas,15367,08:23:48,08:24:08,13,upward,16891.973
81,Botanical Garden,15368,07:54:45,07:55:05,0,upward,0.0
161,Okhla Bird Sanctuary,15368,07:58:37,07:58:57,1,upward,2003.493
162,Kalindi Kunj,15368,08:01:32,08:01:52,2,upward,3589.032
163,Jasola Vihar Shaheen Bagh,15368,08:05:04,08:05:24,3,upward,5593.097
164,Okhla Vihar,15368,08:08:25,08:08:45,4,upward,7428.589
165,Jamia Millia Islamia,15368,08:11:12,08:11:32,5,upward,8372.665
166,Sukhdev Vihar,15368,08:14:05,08:14:25,6,upward,9604.107
167,Okhla NSIC,15368,08:16:43,08:17:03,7,upward,10754.323
131,Kalkaji Mandir,15368,08:19:00,08:19:20,8,upward,11547.502
182,Nehru Enclave,15368,08:20:56,08:21:16,9,upward,12378.613
183,Greater Kailash,15368,08:23:35,08:23:55,10,upward,13737.647
184,Chirag Delhi,15368,08:25:40,08:26:00,11,upward,14563.604
185,Panchsheel Park,15368,08:27:44,08:28:04,12,upward,15478.074
59,Hauz Khas,15368,08:30:33,08:30:53,13,upward,16891.973
81,Botanical Garden,15369,08:01:30,08:01:50,0,upward,0.0
161,Okhla Bird Sanctuary,15369,08:05:22,08:05:42,1,upward,2003.493
162,Kalindi Kunj,15369,08:08:17,08:08:37,2,upward,3589.032
163,Jasola Vihar Shaheen Bagh,15369,08:11:49,08:12:09,3,upward,5593.097
164,Okhla Vihar,15369,08:15:10,08:15:30,4,upward,7428.589
165,Jamia Millia Islamia,15369,08:17:57,08:18:17,5,upward,8372.665
166,Sukhdev Vihar,15369,08:20:50,08:21:10,6,upward,9604.107
167,Okhla NSIC,15369,08:23:28,08:23:48,7,upward,10754.323
131,Kalkaji Mandir,15369,08:25:45,08:26:05,8,upward,11547.502
182,Nehru Enclave,15369,08:27:41,08:28:01,9,upward,12378.613
183,Greater Kailash,15369,08:30:20,08:30:40,10,upward,13737.647
184,Chirag Delhi,15369,08:32:25,08:32:45,11,upward,14563.604
185,Panchsheel Park,15369,08:34:29,08:34:49,12,upward,15478.074
59,Hauz Khas,15369,08:37:18,08:37:38,13,upward,16891.973
81,Botanical Garden,15370,08:06:40,08:07:00,0,upward,0.0
161,Okhla Bird Sanctuary,15370,08:10:32,08:10:52,1,upward,2003.493
162,Kalindi Kunj,15370,08:13:27,08:13:47,2,upward,3589.032
163,Jasola Vihar Shaheen Bagh,15370,08:16:59,08:17:19,3,upward,5593.097
164,Okhla Vihar,15370,08:20:20,08:20:40,4,upward,7428.589
165,Jamia Millia Islamia,15370,08:23:07,08:23:27,5,upward,8372.665
166,Sukhdev Vihar,15370,08:26:00,08:26:20,6,upward,9604.107
167,Okhla NSIC,15370,08:28:38,08:28:58,7,upward,10754.323
131,Kalkaji Mandir,15370,08:30:55,08:31:15,8,upward,11547.502
182,Nehru Enclave,15370,08:32:51,08:33:11,9,upward,12378.613
183,Greater Kailash,15370,08:35:30,08:35:50,10,upward,13737.647
184,Chirag Delhi,15370,08:37:35,08:37:55,11,upward,14563.604
185,Panchsheel Park,15370,08:39:39,08:39:59,12,upward,15478.074
59,Hauz Khas,15370,08:42:28,08:42:48,13,upward,16891.973
81,Botanical Garden,15371,08:11:50,08:12:10,0,upward,0.0
161,Okhla Bird Sanctuary,15371,08:15:42,08:16:02,1,upward,2003.493
162,Kalindi Kunj,15371,08:18:37,08:18:57,2,upward,3589.032
163,Jasola Vihar Shaheen Bagh,15371,08:22:09,08:22:29,3,upward,5593.097
164,Okhla Vihar,15371,08:25:30,08:25:50,4,upward,7428.589
165,Jamia Millia Islamia,15371,08:28:17,08:28:37,5,upward,8372.665
166,Sukhdev Vihar,15371,08:31:10,08:31:30,6,upward,9604.107
167,Okhla NSIC,15371,08:33:48,08:34:08,7,upward,10754.323
131,Kalkaji Mandir,15371,08:36:05,08:36:25,8,upward,11547.502
182,Nehru Enclave,15371,08:38:01,08:38:21,9,upward,12378.613
183,Greater Kailash,15371,08:40:40,08:41:00,10,upward,13737.647
184,Chirag Delhi,15371,08:42:45,08:43:05,11,upward,14563.604
185,Panchsheel Park,15371,08:44:49,08:45:09,12,upward,15478.074
59,Hauz Khas,15371,08:47:38,08:47:58,13,upward,16891.973
81,Botanical Garden,15372,08:17:00,08:17:20,0,upward,0.0
161,Okhla Bird Sanctuary,15372,08:20:52,08:21:12,1,upward,2003.493
162,Kalindi Kunj,15372,08:23:47,08:24:07,2,upward,3589.032
163,Jasola Vihar Shaheen Bagh,15372,08:27:19,08:27:39,3,upward,5593.097
164,Okhla Vihar,15372,08:30:40,08:31:00,4,upward,7428.589
165,Jamia Millia Islamia,15372,08:33:27,08:33:47,5,upward,8372.665
166,Sukhdev Vihar,15372,08:36:20,08:36:40,6,upward,9604.107
167,Okhla NSIC,15372,08:38:58,08:39:18,7,upward,10754.323
131,Kalkaji Mandir,15372,08:41:15,08:41:35,8,upward,11547.502
182,Nehru Enclave,15372,08:43:11,08:43:31,9,upward,12378.613
183,Greater Kailash,15372,08:45:50,08:46:10,10,upward,13737.647
184,Chirag Delhi,15372,08:47:55,08:48:15,11,upward,14563.604
185,Panchsheel Park,15372,08:49:59,08:50:19,12,upward,15478.074
59,Hauz Khas,15372,08:52:48,08:53:08,13,upward,16891.973
81,Botanical Garden,15373,08:22:10,08:22:30,0,upward,0.0
161,Okhla Bird Sanctuary,15373,08:26:02,08:26:22,1,upward,2003.493
162,Kalindi Kunj,15373,08:28:57,08:29:17,2,upward,3589.032
163,Jasola Vihar Shaheen Bagh,15373,08:32:29,08:32:49,3,upward,5593.097
164,Okhla Vihar,15373,08:35:50,08:36:10,4,upward,7428.589
165,Jamia Millia Islamia,15373,08:38:37,08:38:57,5,upward,8372.665
166,Sukhdev Vihar,15373,08:41:30,08:41:50,6,upward,9604.107
167,Okhla NSIC,15373,08:44:08,08:44:28,7,upward,10754.323
131,Kalkaji Mandir,15373,08:46:25,08:46:45,8,upward,11547.502
182,Nehru Enclave,15373,08:48:21,08:48:41,9,upward,12378.613
183,Greater Kailash,15373,08:51:00,08:51:20,10,upward,13737.647
184,Chirag Delhi,15373,08:53:05,08:53:25,11,upward,14563.604
185,Panchsheel Park,15373,08:55:09,08:55:29,12,upward,15478.074
59,Hauz Khas,15373,08:57:58,08:58:18,13,upward,16891.973
81,Botanical Garden,15374,08:27:20,08:27:40,0,upward,0.0
161,Okhla Bird Sanctuary,15374,08:31:12,08:31:32,1,upward,2003.493
162,Kalindi Kunj,15374,08:34:07,08:34:27,2,upward,3589.032
163,Jasola Vihar Shaheen Bagh,15374,08:37:39,08:37:59,3,upward,5593.097
164,Okhla Vihar,15374,08:41:00,08:41:20,4,upward,7428.589
165,Jamia Millia Islamia,15374,08:43:47,08:44:07,5,upward,8372.665
166,Sukhdev Vihar,15374,08:46:40,08:47:00,6,upward,9604.107
167,Okhla NSIC,15374,08:49:18,08:49:38,7,upward,10754.323
131,Kalkaji Mandir,15374,08:51:35,08:51:55,8,upward,11547.502
182,Nehru Enclave,15374,08:53:31,08:53:51,9,upward,12378.613
183,Greater Kailash,15374,08:56:10,08:56:30,10,upward,13737.647
184,Chirag Delhi,15374,08:58:15,08:58:35,11,upward,14563.604
185,Panchsheel Park,15374,09:00:19,09:00:39,12,upward,15478.074
59,Hauz Khas,15374,09:03:08,09:03:28,13,upward,16891.973
81,Botanical Garden,15375,08:32:30,08:32:50,0,upward,0.0
161,Okhla Bird Sanctuary,15375,08:36:22,08:36:42,1,upward,2003.493
162,Kalindi Kunj,15375,08:39:17,08:39:37,2,upward,3589.032
163,Jasola Vihar Shaheen Bagh,15375,08:42:49,08:43:09,3,upward,5593.097
164,Okhla Vihar,15375,08:46:10,08:46:30,4,upward,7428.589
165,Jamia Millia Islamia,15375,08:48:57,08:49:17,5,upward,8372.665
166,Sukhdev Vihar,15375,08:51:50,08:52:10,6,upward,9604.107
167,Okhla NSIC,15375,08:54:28,08:54:48,7,upward,10754.323
131,Kalkaji Mandir,15375,08:56:45,08:57:05,8,upward,11547.502
182,Nehru Enclave,15375,08:58:41,08:59:01,9,upward,12378.613
183,Greater Kailash,15375,09:01:20,09:01:40,10,upward,13737.647
184,Chirag Delhi,15375,09:03:25,09:03:45,11,upward,14563.604
185,Panchsheel Park,15375,09:05:29,09:05:49,12,upward,15478.074
59,Hauz Khas,15375,09:08:18,09:08:38,13,upward,16891.973
81,Botanical Garden,15376,08:37:40,08:38:00,0,upward,0.0
161,Okhla Bird Sanctuary,15376,08:41:32,08:41:52,1,upward,2003.493
162,Kalindi Kunj,15376,08:44:27,08:44:47,2,upward,3589.032
163,Jasola Vihar Shaheen Bagh,15376,08:47:59,08:48:19,3,upward,5593.097
164,Okhla Vihar,15376,08:51:20,08:51:40,4,upward,7428.589
165,Jamia Millia Islamia,15376,08:54:07,08:54:27,5,upward,8372.665
166,Sukhdev Vihar,15376,08:57:00,08:57:20,6,upward,9604.107
167,Okhla NSIC,15376,08:59:38,08:59:58,7,upward,10754.323
131,Kalkaji Mandir,15376,09:01:55,09:02:15,8,upward,11547.502
182,Nehru Enclave,15376,09:03:51,09:04:11,9,upward,12378.613
183,Greater Kailash,15376,09:06:30,09:06:50,10,upward,13737.647
184,Chirag Delhi,15376,09:08:35,09:08:55,11,upward,14563.604
185,Panchsheel Park,15376,09:10:39,09:10:59,12,upward,15478.074
59,Hauz Khas,15376,09:13:28,09:13:48,13,upward,16891.973
81,Botanical Garden,15377,08:42:50,08:43:10,0,upward,0.0
161,Okhla Bird Sanctuary,15377,08:46:42,08:47:02,1,upward,2003.493
162,Kalindi Kunj,15377,08:49:37,08:49:57,2,upward,3589.032
163,Jasola Vihar Shaheen Bagh,15377,08:53:09,08:53:29,3,upward,5593.097
164,Okhla Vihar,15377,08:56:30,08:56:50,4,upward,7428.589
165,Jamia Millia Islamia,15377,08:59:17,08:59:37,5,upward,8372.665
166,Sukhdev Vihar,15377,09:02:10,09:02:30,6,upward,9604.107
167,Okhla NSIC,15377,09:04:48,09:05:08,7,upward,10754.323
131,Kalkaji Mandir,15377,09:07:05,09:07:25,8,upward,11547.502
182,Nehru Enclave,15377,09:09:01,09:09:21,9,upward,12378.613
183,Greater Kailash,15377,09:11:40,09:12:00,10,upward,13737.647
184,Chirag Delhi,15377,09:13:45,09:14:05,11,upward,14563.604
185,Panchsheel Park,15377,09:15:49,09:16:09,12,upward,15478.074
59,Hauz Khas,15377,09:18:38,09:18:58,13,upward,16891.973
81,Botanical Garden,15378,08:48:00,08:48:20,0,upward,0.0
161,Okhla Bird Sanctuary,15378,08:51:52,08:52:12,1,upward,2003.493
162,Kalindi Kunj,15378,08:54:47,08:55:07,2,upward,3589.032
163,Jasola Vihar Shaheen Bagh,15378,08:58:19,08:58:39,3,upward,5593.097
164,Okhla Vihar,15378,09:01:40,09:02:00,4,upward,7428.589
165,Jamia Millia Islamia,15378,09:04:27,09:04:47,5,upward,8372.665
166,Sukhdev Vihar,15378,09:07:20,09:07:40,6,upward,9604.107
167,Okhla NSIC,15378,09:09:58,09:10:18,7,upward,10754.323
131,Kalkaji Mandir,15378,09:12:15,09:12:35,8,upward,11547.502
182,Nehru Enclave,15378,09:14:11,09:14:31,9,upward,12378.613
183,Greater Kailash,15378,09:16:50,09:17:10,10,upward,13737.647
184,Chirag Delhi,15378,09:18:55,09:19:15,11,upward,14563.604
185,Panchsheel Park,15378,09:20:59,09:21:19,12,upward,15478.074
59,Hauz Khas,15378,09:23:48,09:24:08,13,upward,16891.973
81,Botanical Garden,15379,08:53:10,08:53:30,0,upward,0.0
161,Okhla Bird Sanctuary,15379,08:57:02,08:57:22,1,upward,2003.493
162,Kalindi Kunj,15379,08:59:57,09:00:17,2,upward,3589.032
163,Jasola Vihar Shaheen Bagh,15379,09:03:29,09:03:49,3,upward,5593.097
164,Okhla Vihar,15379,09:06:50,09:07:10,4,upward,7428.589
165,Jamia Millia Islamia,15379,09:09:37,09:09:57,5,upward,8372.665
166,Sukhdev Vihar,15379,09:12:30,09:12:50,6,upward,9604.107
167,Okhla NSIC,15379,09:15:08,09:15:28,7,upward,10754.323
131,Kalkaji Mandir,15379,09:17:25,09:17:45,8,upward,11547.502
182,Nehru Enclave,15379,09:19:21,09:19:41,9,upward,12378.613
183,Greater Kailash,15379,09:22:00,09:22:20,10,upward,13737.647
184,Chirag Delhi,15379,09:24:05,09:24:25,11,upward,14563.604
185,Panchsheel Park,15379,09:26:09,09:26:29,12,upward,15478.074
59,Hauz Khas,15379,09:28:58,09:29:18,13,upward,16891.973
81,Botanical Garden,15380,08:58:20,08:58:40,0,upward,0.0
161,Okhla Bird Sanctuary,15380,09:02:12,09:02:32,1,upward,2003.493
162,Kalindi Kunj,15380,09:05:07,09:05:27,2,upward,3589.032
163,Jasola Vihar Shaheen Bagh,15380,09:08:39,09:08:59,3,upward,5593.097
164,Okhla Vihar,15380,09:12:00,09:12:20,4,upward,7428.589
165,Jamia Millia Islamia,15380,09:14:47,09:15:07,5,upward,8372.665
166,Sukhdev Vihar,15380,09:17:40,09:18:00,6,upward,9604.107
167,Okhla NSIC,15380,09:20:18,09:20:38,7,upward,10754.323
131,Kalkaji Mandir,15380,09:22:35,09:22:55,8,upward,11547.502
182,Nehru Enclave,15380,09:24:31,09:24:51,9,upward,12378.613
183,Greater Kailash,15380,09:27:10,09:27:30,10,upward,13737.647
184,Chirag Delhi,15380,09:29:15,09:29:35,11,upward,14563.604
185,Panchsheel Park,15380,09:31:19,09:31:39,12,upward,15478.074
59,Hauz Khas,15380,09:34:08,09:34:28,13,upward,16891.973
81,Botanical Garden,15381,09:03:30,09:03:50,0,upward,0.0
161,Okhla Bird Sanctuary,15381,09:07:22,09:07:42,1,upward,2003.493
162,Kalindi Kunj,15381,09:10:17,09:10:37,2,upward,3589.032
163,Jasola Vihar Shaheen Bagh,15381,09:13:49,09:14:09,3,upward,5593.097
164,Okhla Vihar,15381,09:17:10,09:17:30,4,upward,7428.589
165,Jamia Millia Islamia,15381,09:19:57,09:20:17,5,upward,8372.665
166,Sukhdev Vihar,15381,09:22:50,09:23:10,6,upward,9604.107
167,Okhla NSIC,15381,09:25:28,09:25:48,7,upward,10754.323
131,Kalkaji Mandir,15381,09:27:45,09:28:05,8,upward,11547.502
182,Nehru Enclave,15381,09:29:41,09:30:01,9,upward,12378.613
183,Greater Kailash,15381,09:32:20,09:32:40,10,upward,13737.647
184,Chirag Delhi,15381,09:34:25,09:34:45,11,upward,14563.604
185,Panchsheel Park,15381,09:36:29,09:36:49,12,upward,15478.074
59,Hauz Khas,15381,09:39:18,09:39:38,13,upward,16891.973
81,Botanical Garden,15382,09:08:40,09:09:00,0,upward,0.0
161,Okhla Bird Sanctuary,15382,09:12:32,09:12:52,1,upward,2003.493
162,Kalindi Kunj,15382,09:15:27,09:15:47,2,upward,3589.032
163,Jasola Vihar Shaheen Bagh,15382,09:18:59,09:19:19,3,upward,5593.097
164,Okhla Vihar,15382,09:22:20,09:22:40,4,upward,7428.589
165,Jamia Millia Islamia,15382,09:25:07,09:25:27,5,upward,8372.665
166,Sukhdev Vihar,15382,09:28:00,09:28:20,6,upward,9604.107
167,Okhla NSIC,15382,09:30:38,09:30:58,7,upward,10754.323
131,Kalkaji Mandir,15382,09:32:55,09:33:15,8,upward,11547.502
182,Nehru Enclave,15382,09:34:51,09:35:11,9,upward,12378.613
183,Greater Kailash,15382,09:37:30,09:37:50,10,upward,13737.647
184,Chirag Delhi,15382,09:39:35,09:39:55,11,upward,14563.604
185,Panchsheel Park,15382,09:41:39,09:41:59,12,upward,15478.074
59,Hauz Khas,15382,09:44:28,09:44:48,13,upward,16891.973
81,Botanical Garden,15383,09:13:50,09:14:10,0,upward,0.0
161,Okhla Bird Sanctuary,15383,09:17:42,09:18:02,1,upward,2003.493
162,Kalindi Kunj,15383,09:20:37,09:20:57,2,upward,3589.032
163,Jasola Vihar Shaheen Bagh,15383,09:24:09,09:24:29,3,upward,5593.097
164,Okhla Vihar,15383,09:27:30,09:27:50,4,upward,7428.589
165,Jamia Millia Islamia,15383,09:30:17,09:30:37,5,upward,8372.665
166,Sukhdev Vihar,15383,09:33:10,09:33:30,6,upward,9604.107
167,Okhla NSIC,15383,09:35:48,09:36:08,7,upward,10754.323
131,Kalkaji Mandir,15383,09:38:05,09:38:25,8,upward,11547.502
182,Nehru Enclave,15383,09:40:01,09:40:21,9,upward,12378.613
183,Greater Kailash,15383,09:42:40,09:43:00,10,upward,13737.647
184,Chirag Delhi,15383,09:44:45,09:45:05,11,upward,14563.604
185,Panchsheel Park,15383,09:46:49,09:47:09,12,upward,15478.074
59,Hauz Khas,15383,09:49:38,09:49:58,13,upward,16891.973
81,Botanical Garden,15384,09:19:00,09:19:20,0,upward,0.0
161,Okhla Bird Sanctuary,15384,09:22:52,09:23:12,1,upward,2003.493
162,Kalindi Kunj,15384,09:25:47,09:26:07,2,upward,3589.032
163,Jasola Vihar Shaheen Bagh,15384,09:29:19,09:29:39,3,upward,5593.097
164,Okhla Vihar,15384,09:32:40,09:33:00,4,upward,7428.589
165,Jamia Millia Islamia,15384,09:35:27,09:35:47,5,upward,8372.665
166,Sukhdev Vihar,15384,09:38:20,09:38:40,6,upward,9604.107
167,Okhla NSIC,15384,09:40:58,09:41:18,7,upward,10754.323
131,Kalkaji Mandir,15384,09:43:15,09:43:35,8,upward,11547.502
182,Nehru Enclave,15384,09:45:11,09:45:31,9,upward,12378.613
183,Greater Kailash,15384,09:47:50,09:48:10,10,upward,13737.647
184,Chirag Delhi,15384,09:49:55,09:50:15,11,upward,14563.604
185,Panchsheel Park,15384,09:51:59,09:52:19,12,upward,15478.074
59,Hauz Khas,15384,09:54:48,09:55:08,13,upward,16891.973
81,Botanical Garden,15385,09:24:10,09:24:30,0,upward,0.0
161,Okhla Bird Sanctuary,15385,09:28:02,09:28:22,1,upward,2003.493
162,Kalindi Kunj,15385,09:30:57,09:31:17,2,upward,3589.032
163,Jasola Vihar Shaheen Bagh,15385,09:34:29,09:34:49,3,upward,5593.097
164,Okhla Vihar,15385,09:37:50,09:38:10,4,upward,7428.589
165,Jamia Millia Islamia,15385,09:40:37,09:40:57,5,upward,8372.665
166,Sukhdev Vihar,15385,09:43:30,09:43:50,6,upward,9604.107
167,Okhla NSIC,15385,09:46:08,09:46:28,7,upward,10754.323
131,Kalkaji Mandir,15385,09:48:25,09:48:45,8,upward,11547.502
182,Nehru Enclave,15385,09:50:21,09:50:41,9,upward,12378.613
183,Greater Kailash,15385,09:53:00,09:53:20,10,upward,13737.647
184,Chirag Delhi,15385,09:55:05,09:55:25,11,upward,14563.604
185,Panchsheel Park,15385,09:57:09,09:57:29,12,upward,15478.074
59,Hauz Khas,15385,09:59:58,10:00:18,13,upward,16891.973
81,Botanical Garden,15386,09:29:20,09:29:40,0,upward,0.0
161,Okhla Bird Sanctuary,15386,09:33:12,09:33:32,1,upward,2003.493
162,Kalindi Kunj,15386,09:36:07,09:36:27,2,upward,3589.032
163,Jasola Vihar Shaheen Bagh,15386,09:39:39,09:39:59,3,upward,5593.097
164,Okhla Vihar,15386,09:43:00,09:43:20,4,upward,7428.589
165,Jamia Millia Islamia,15386,09:45:47,09:46:07,5,upward,8372.665
166,Sukhdev Vihar,15386,09:48:40,09:49:00,6,upward,9604.107
167,Okhla NSIC,15386,09:51:18,09:51:38,7,upward,10754.323
131,Kalkaji Mandir,15386,09:53:35,09:53:55,8,upward,11547.502
182,Nehru Enclave,15386,09:55:31,09:55:51,9,upward,12378.613
183,Greater Kailash,15386,09:58:10,09:58:30,10,upward,13737.647
184,Chirag Delhi,15386,10:00:15,10:00:35,11,upward,14563.604
185,Panchsheel Park,15386,10:02:19,10:02:39,12,upward,15478.074
59,Hauz Khas,15386,10:05:08,10:05:28,13,upward,16891.973
81,Botanical Garden,15387,09:34:30,09:34:50,0,upward,0.0
161,Okhla Bird Sanctuary,15387,09:38:22,09:38:42,1,upward,2003.493
162,Kalindi Kunj,15387,09:41:17,09:41:37,2,upward,3589.032
163,Jasola Vihar Shaheen Bagh,15387,09:44:49,09:45:09,3,upward,5593.097
164,Okhla Vihar,15387,09:48:10,09:48:30,4,upward,7428.589
165,Jamia Millia Islamia,15387,09:50:57,09:51:17,5,upward,8372.665
166,Sukhdev Vihar,15387,09:53:50,09:54:10,6,upward,9604.107
167,Okhla NSIC,15387,09:56:28,09:56:48,7,upward,10754.323
131,Kalkaji Mandir,15387,09:58:45,09:59:05,8,upward,11547.502
182,Nehru Enclave,15387,10:00:41,10:01:01,9,upward,12378.613
183,Greater Kailash,15387,10:03:20,10:03:40,10,upward,13737.647
184,Chirag Delhi,15387,10:05:25,10:05:45,11,upward,14563.604
185,Panchsheel Park,15387,10:07:29,10:07:49,12,upward,15478.074
59,Hauz Khas,15387,10:10:18,10:10:38,13,upward,16891.973
81,Botanical Garden,15388,09:39:40,09:40:00,0,upward,0.0
161,Okhla Bird Sanctuary,15388,09:43:32,09:43:52,1,upward,2003.493
162,Kalindi Kunj,15388,09:46:27,09:46:47,2,upward,3589.032
163,Jasola Vihar Shaheen Bagh,15388,09:49:59,09:50:19,3,upward,5593.097
164,Okhla Vihar,15388,09:53:20,09:53:40,4,upward,7428.589
165,Jamia Millia Islamia,15388,09:56:07,09:56:27,5,upward,8372.665
166,Sukhdev Vihar,15388,09:59:00,09:59:20,6,upward,9604.107
167,Okhla NSIC,15388,10:01:38,10:01:58,7,upward,10754.323
131,Kalkaji Mandir,15388,10:03:55,10:04:15,8,upward,11547.502
182,Nehru Enclave,15388,10:05:51,10:06:11,9,upward,12378.613
183,Greater Kailash,15388,10:08:30,10:08:50,10,upward,13737.647
184,Chirag Delhi,15388,10:10:35,10:10:55,11,upward,14563.604
185,Panchsheel Park,15388,10:12:39,10:12:59,12,upward,15478.074
59,Hauz Khas,15388,10:15:28,10:15:48,13,upward,16891.973
81,Botanical Garden,15389,09:44:50,09:45:10,0,upward,0.0
161,Okhla Bird Sanctuary,15389,09:48:42,09:49:02,1,upward,2003.493
162,Kalindi Kunj,15389,09:51:37,09:51:57,2,upward,3589.032
163,Jasola Vihar Shaheen Bagh,15389,09:55:09,09:55:29,3,upward,5593.097
164,Okhla Vihar,15389,09:58:30,09:58:50,4,upward,7428.589
165,Jamia Millia Islamia,15389,10:01:17,10:01:37,5,upward,8372.665
166,Sukhdev Vihar,15389,10:04:10,10:04:30,6,upward,9604.107
167,Okhla NSIC,15389,10:06:48,10:07:08,7,upward,10754.323
131,Kalkaji Mandir,15389,10:09:05,10:09:25,8,upward,11547.502
182,Nehru Enclave,15389,10:11:01,10:11:21,9,upward,12378.613
183,Greater Kailash,15389,10:13:40,10:14:00,10,upward,13737.647
184,Chirag Delhi,15389,10:15:45,10:16:05,11,upward,14563.604
185,Panchsheel Park,15389,10:17:49,10:18:09,12,upward,15478.074
59,Hauz Khas,15389,10:20:38,10:20:58,13,upward,16891.973
81,Botanical Garden,15390,09:50:00,09:50:20,0,upward,0.0
161,Okhla Bird Sanctuary,15390,09:53:52,09:54:12,1,upward,2003.493
162,Kalindi Kunj,15390,09:56:47,09:57:07,2,upward,3589.032
163,Jasola Vihar Shaheen Bagh,15390,10:00:19,10:00:39,3,upward,5593.097
164,Okhla Vihar,15390,10:03:40,10:04:00,4,upward,7428.589
165,Jamia Millia Islamia,15390,10:06:27,10:06:47,5,upward,8372.665
166,Sukhdev Vihar,15390,10:09:20,10:09:40,6,upward,9604.107
167,Okhla NSIC,15390,10:11:58,10:12:18,7,upward,10754.323
131,Kalkaji Mandir,15390,10:14:15,10:14:35,8,upward,11547.502
182,Nehru Enclave,15390,10:16:11,10:16:31,9,upward,12378.613
183,Greater Kailash,15390,10:18:50,10:19:10,10,upward,13737.647
184,Chirag Delhi,15390,10:20:55,10:21:15,11,upward,14563.604
185,Panchsheel Park,15390,10:22:59,10:23:19,12,upward,15478.074
59,Hauz Khas,15390,10:25:48,10:26:08,13,upward,16891.973
81,Botanical Garden,15391,09:55:10,09:55:30,0,upward,0.0
161,Okhla Bird Sanctuary,15391,09:59:02,09:59:22,1,upward,2003.493
162,Kalindi Kunj,15391,10:01:57,10:02:17,2,upward,3589.032
163,Jasola Vihar Shaheen Bagh,15391,10:05:29,10:05:49,3,upward,5593.097
164,Okhla Vihar,15391,10:08:50,10:09:10,4,upward,7428.589
165,Jamia Millia Islamia,15391,10:11:37,10:11:57,5,upward,8372.665
166,Sukhdev Vihar,15391,10:14:30,10:14:50,6,upward,9604.107
167,Okhla NSIC,15391,10:17:08,10:17:28,7,upward,10754.323
131,Kalkaji Mandir,15391,10:19:25,10:19:45,8,upward,11547.502
182,Nehru Enclave,15391,10:21:21,10:21:41,9,upward,12378.613
183,Greater Kailash,15391,10:24:00,10:24:20,10,upward,13737.647
184,Chirag Delhi,15391,10:26:05,10:26:25,11,upward,14563.604
185,Panchsheel Park,15391,10:28:09,10:28:29,12,upward,15478.074
59,Hauz Khas,15391,10:30:58,10:31:18,13,upward,16891.973
81,Botanical Garden,15392,10:00:20,10:00:40,0,upward,0.0
161,Okhla Bird Sanctuary,15392,10:04:12,10:04:32,1,upward,2003.493
162,Kalindi Kunj,15392,10:07:07,10:07:27,2,upward,3589.032
163,Jasola Vihar Shaheen Bagh,15392,10:10:39,10:10:59,3,upward,5593.097
164,Okhla Vihar,15392,10:14:00,10:14:20,4,upward,7428.589
165,Jamia Millia Islamia,15392,10:16:47,10:17:07,5,upward,8372.665
166,Sukhdev Vihar,15392,10:19:40,10:20:00,6,upward,9604.107
167,Okhla NSIC,15392,10:22:18,10:22:38,7,upward,10754.323
131,Kalkaji Mandir,15392,10:24:35,10:24:55,8,upward,11547.502
182,Nehru Enclave,15392,10:26:31,10:26:51,9,upward,12378.613
183,Greater Kailash,15392,10:29:10,10:29:30,10,upward,13737.647
184,Chirag Delhi,15392,10:31:15,10:31:35,11,upward,14563.604
185,Panchsheel Park,15392,10:33:19,10:33:39,12,upward,15478.074
59,Hauz Khas,15392,10:36:08,10:36:28,13,upward,16891.973
81,Botanical Garden,15393,10:05:30,10:05:50,0,upward,0.0
161,Okhla Bird Sanctuary,15393,10:09:22,10:09:42,1,upward,2003.493
162,Kalindi Kunj,15393,10:12:17,10:12:37,2,upward,3589.032
163,Jasola Vihar Shaheen Bagh,15393,10:15:49,10:16:09,3,upward,5593.097
164,Okhla Vihar,15393,10:19:10,10:19:30,4,upward,7428.589
165,Jamia Millia Islamia,15393,10:21:57,10:22:17,5,upward,8372.665
166,Sukhdev Vihar,15393,10:24:50,10:25:10,6,upward,9604.107
167,Okhla NSIC,15393,10:27:28,10:27:48,7,upward,10754.323
131,Kalkaji Mandir,15393,10:29:45,10:30:05,8,upward,11547.502
182,Nehru Enclave,15393,10:31:41,10:32:01,9,upward,12378.613
183,Greater Kailash,15393,10:34:20,10:34:40,10,upward,13737.647
184,Chirag Delhi,15393,10:36:25,10:36:45,11,upward,14563.604
185,Panchsheel Park,15393,10:38:29,10:38:49,12,upward,15478.074
59,Hauz Khas,15393,10:41:18,10:41:38,13,upward,16891.973
81,Botanical Garden,15394,10:10:40,10:11:00,0,upward,0.0
161,Okhla Bird Sanctuary,15394,10:14:32,10:14:52,1,upward,2003.493
162,Kalindi Kunj,15394,10:17:27,10:17:47,2,upward,3589.032
163,Jasola Vihar Shaheen Bagh,15394,10:20:59,10:21:19,3,upward,5593.097
164,Okhla Vihar,15394,10:24:20,10:24:40,4,upward,7428.589
165,Jamia Millia Islamia,15394,10:27:07,10:27:27,5,upward,8372.665
166,Sukhdev Vihar,15394,10:30:00,10:30:20,6,upward,9604.107
167,Okhla NSIC,15394,10:32:38,10:32:58,7,upward,10754.323
131,Kalkaji Mandir,15394,10:34:55,10:35:15,8,upward,11547.502
182,Nehru Enclave,15394,10:36:51,10:37:11,9,upward,12378.613
183,Greater Kailash,15394,10:39:30,10:39:50,10,upward,13737.647
184,Chirag Delhi,15394,10:41:35,10:41:55,11,upward,14563.604
185,Panchsheel Park,15394,10:43:39,10:43:59,12,upward,15478.074
59,Hauz Khas,15394,10:46:28,10:46:48,13,upward,16891.973
81,Botanical Garden,15395,10:15:50,10:16:10,0,upward,0.0
161,Okhla Bird Sanctuary,15395,10:19:42,10:20:02,1,upward,2003.493
162,Kalindi Kunj,15395,10:22:37,10:22:57,2,upward,3589.032
163,Jasola Vihar Shaheen Bagh,15395,10:26:09,10:26:29,3,upward,5593.097
164,Okhla Vihar,15395,10:29:30,10:29:50,4,upward,7428.589
165,Jamia Millia Islamia,15395,10:32:17,10:32:37,5,upward,8372.665
166,Sukhdev Vihar,15395,10:35:10,10:35:30,6,upward,9604.107
167,Okhla NSIC,15395,10:37:48,10:38:08,7,upward,10754.323
131,Kalkaji Mandir,15395,10:40:05,10:40:25,8,upward,11547.502
182,Nehru Enclave,15395,10:42:01,10:42:21,9,upward,12378.613
183,Greater Kailash,15395,10:44:40,10:45:00,10,upward,13737.647
184,Chirag Delhi,15395,10:46:45,10:47:05,11,upward,14563.604
185,Panchsheel Park,15395,10:48:49,10:49:09,12,upward,15478.074
59,Hauz Khas,15395,10:51:38,10:51:58,13,upward,16891.973
81,Botanical Garden,15396,10:21:00,10:21:20,0,upward,0.0
161,Okhla Bird Sanctuary,15396,10:24:52,10:25:12,1,upward,2003.493
162,Kalindi Kunj,15396,10:27:47,10:28:07,2,upward,3589.032
163,Jasola Vihar Shaheen Bagh,15396,10:31:19,10:31:39,3,upward,5593.097
164,Okhla Vihar,15396,10:34:40,10:35:00,4,upward,7428.589
165,Jamia Millia Islamia,15396,10:37:27,10:37:47,5,upward,8372.665
166,Sukhdev Vihar,15396,10:40:20,10:40:40,6,upward,9604.107
167,Okhla NSIC,15396,10:42:58,10:43:18,7,upward,10754.323
131,Kalkaji Mandir,15396,10:45:15,10:45:35,8,upward,11547.502
182,Nehru Enclave,15396,10:47:11,10:47:31,9,upward,12378.613
183,Greater Kailash,15396,10:49:50,10:50:10,10,upward,13737.647
184,Chirag Delhi,15396,10:51:55,10:52:15,11,upward,14563.604
185,Panchsheel Park,15396,10:53:59,10:54:19,12,upward,15478.074
59,Hauz Khas,15396,10:56:48,10:57:08,13,upward,16891.973
81,Botanical Garden,15397,10:26:10,10:26:30,0,upward,0.0
161,Okhla Bird Sanctuary,15397,10:30:02,10:30:22,1,upward,2003.493
162,Kalindi Kunj,15397,10:32:57,10:33:17,2,upward,3589.032
163,Jasola Vihar Shaheen Bagh,15397,10:36:29,10:36:49,3,upward,5593.097
164,Okhla Vihar,15397,10:39:50,10:40:10,4,upward,7428.589
165,Jamia Millia Islamia,15397,10:42:37,10:42:57,5,upward,8372.665
166,Sukhdev Vihar,15397,10:45:30,10:45:50,6,upward,9604.107
167,Okhla NSIC,15397,10:48:08,10:48:28,7,upward,10754.323
131,Kalkaji Mandir,15397,10:50:25,10:50:45,8,upward,11547.502
182,Nehru Enclave,15397,10:52:21,10:52:41,9,upward,12378.613
183,Greater Kailash,15397,10:55:00,10:55:20,10,upward,13737.647
184,Chirag Delhi,15397,10:57:05,10:57:25,11,upward,14563.604
185,Panchsheel Park,15397,10:59:09,10:59:29,12,upward,15478.074
59,Hauz Khas,15397,11:01:58,11:02:18,13,upward,16891.973
81,Botanical Garden,15398,10:31:20,10:31:40,0,upward,0.0
161,Okhla Bird Sanctuary,15398,10:35:12,10:35:32,1,upward,2003.493
162,Kalindi Kunj,15398,10:38:07,10:38:27,2,upward,3589.032
163,Jasola Vihar Shaheen Bagh,15398,10:41:39,10:41:59,3,upward,5593.097
164,Okhla Vihar,15398,10:45:00,10:45:20,4,upward,7428.589
165,Jamia Millia Islamia,15398,10:47:47,10:48:07,5,upward,8372.665
166,Sukhdev Vihar,15398,10:50:40,10:51:00,6,upward,9604.107
167,Okhla NSIC,15398,10:53:18,10:53:38,7,upward,10754.323
131,Kalkaji Mandir,15398,10:55:35,10:55:55,8,upward,11547.502
182,Nehru Enclave,15398,10:57:31,10:57:51,9,upward,12378.613
183,Greater Kailash,15398,11:00:10,11:00:30,10,upward,13737.647
184,Chirag Delhi,15398,11:02:15,11:02:35,11,upward,14563.604
185,Panchsheel Park,15398,11:04:19,11:04:39,12,upward,15478.074
59,Hauz Khas,15398,11:07:08,11:07:28,13,upward,16891.973
81,Botanical Garden,15399,10:36:30,10:36:50,0,upward,0.0
161,Okhla Bird Sanctuary,15399,10:40:22,10:40:42,1,upward,2003.493
162,Kalindi Kunj,15399,10:43:17,10:43:37,2,upward,3589.032
163,Jasola Vihar Shaheen Bagh,15399,10:46:49,10:47:09,3,upward,5593.097
164,Okhla Vihar,15399,10:50:10,10:50:30,4,upward,7428.589
165,Jamia Millia Islamia,15399,10:52:57,10:53:17,5,upward,8372.665
166,Sukhdev Vihar,15399,10:55:50,10:56:10,6,upward,9604.107
167,Okhla NSIC,15399,10:58:28,10:58:48,7,upward,10754.323
131,Kalkaji Mandir,15399,11:00:45,11:01:05,8,upward,11547.502
182,Nehru Enclave,15399,11:02:41,11:03:01,9,upward,12378.613
183,Greater Kailash,15399,11:05:20,11:05:40,10,upward,13737.647
184,Chirag Delhi,15399,11:07:25,11:07:45,11,upward,14563.604
185,Panchsheel Park,15399,11:09:29,11:09:49,12,upward,15478.074
59,Hauz Khas,15399,11:12:18,11:12:38,13,upward,16891.973
81,Botanical Garden,15400,10:41:40,10:42:00,0,upward,0.0
161,Okhla Bird Sanctuary,15400,10:45:32,10:45:52,1,upward,2003.493
162,Kalindi Kunj,15400,10:48:27,10:48:47,2,upward,3589.032
163,Jasola Vihar Shaheen Bagh,15400,10:51:59,10:52:19,3,upward,5593.097
164,Okhla Vihar,15400,10:55:20,10:55:40,4,upward,7428.589
165,Jamia Millia Islamia,15400,10:58:07,10:58:27,5,upward,8372.665
166,Sukhdev Vihar,15400,11:01:00,11:01:20,6,upward,9604.107
167,Okhla NSIC,15400,11:03:38,11:03:58,7,upward,10754.323
131,Kalkaji Mandir,15400,11:05:55,11:06:15,8,upward,11547.502
182,Nehru Enclave,15400,11:07:51,11:08:11,9,upward,12378.613
183,Greater Kailash,15400,11:10:30,11:10:50,10,upward,13737.647
184,Chirag Delhi,15400,11:12:35,11:12:55,11,upward,14563.604
185,Panchsheel Park,15400,11:14:39,11:14:59,12,upward,15478.074
59,Hauz Khas,15400,11:17:28,11:17:48,13,upward,16891.973
81,Botanical Garden,15401,10:46:50,10:47:10,0,upward,0.0
161,Okhla Bird Sanctuary,15401,10:50:42,10:51:02,1,upward,2003.493
162,Kalindi Kunj,15401,10:53:37,10:53:57,2,upward,3589.032
163,Jasola Vihar Shaheen Bagh,15401,10:57:09,10:57:29,3,upward,5593.097
164,Okhla Vihar,15401,11:00:30,11:00:50,4,upward,7428.589
165,Jamia Millia Islamia,15401,11:03:17,11:03:37,5,upward,8372.665
166,Sukhdev Vihar,15401,11:06:10,11:06:30,6,upward,9604.107
167,Okhla NSIC,15401,11:08:48,11:09:08,7,upward,10754.323
131,Kalkaji Mandir,15401,11:11:05,11:11:25,8,upward,11547.502
182,Nehru Enclave,15401,11:13:01,11:13:21,9,upward,12378.613
183,Greater Kailash,15401,11:15:40,11:16:00,10,upward,13737.647
184,Chirag Delhi,15401,11:17:45,11:18:05,11,upward,14563.604
185,Panchsheel Park,15401,11:19:49,11:20:09,12,upward,15478.074
59,Hauz Khas,15401,11:22:38,11:22:58,13,upward,16891.973
81,Botanical Garden,15402,10:52:00,10:52:20,0,upward,0.0
161,Okhla Bird Sanctuary,15402,10:55:52,10:56:12,1,upward,2003.493
162,Kalindi Kunj,15402,10:58:47,10:59:07,2,upward,3589.032
163,Jasola Vihar Shaheen Bagh,15402,11:02:19,11:02:39,3,upward,5593.097
164,Okhla Vihar,15402,11:05:40,11:06:00,4,upward,7428.589
165,Jamia Millia Islamia,15402,11:08:27,11:08:47,5,upward,8372.665
166,Sukhdev Vihar,15402,11:11:20,11:11:40,6,upward,9604.107
167,Okhla NSIC,15402,11:13:58,11:14:18,7,upward,10754.323
131,Kalkaji Mandir,15402,11:16:15,11:16:35,8,upward,11547.502
182,Nehru Enclave,15402,11:18:11,11:18:31,9,upward,12378.613
183,Greater Kailash,15402,11:20:50,11:21:10,10,upward,13737.647
184,Chirag Delhi,15402,11:22:55,11:23:15,11,upward,14563.604
185,Panchsheel Park,15402,11:24:59,11:25:19,12,upward,15478.074
59,Hauz Khas,15402,11:27:48,11:28:08,13,upward,16891.973
81,Botanical Garden,15403,10:57:10,10:57:30,0,upward,0.0
161,Okhla Bird Sanctuary,15403,11:01:02,11:01:22,1,upward,2003.493
162,Kalindi Kunj,15403,11:03:57,11:04:17,2,upward,3589.032
163,Jasola Vihar Shaheen Bagh,15403,11:07:29,11:07:49,3,upward,5593.097
164,Okhla Vihar,15403,11:10:50,11:11:10,4,upward,7428.589
165,Jamia Millia Islamia,15403,11:13:37,11:13:57,5,upward,8372.665
166,Sukhdev Vihar,15403,11:16:30,11:16:50,6,upward,9604.107
167,Okhla NSIC,15403,11:19:08,11:19:28,7,upward,10754.323
131,Kalkaji Mandir,15403,11:21:25,11:21:45,8,upward,11547.502
182,Nehru Enclave,15403,11:23:21,11:23:41,9,upward,12378.613
183,Greater Kailash,15403,11:26:00,11:26:20,10,upward,13737.647
184,Chirag Delhi,15403,11:28:05,11:28:25,11,upward,14563.604
185,Panchsheel Park,15403,11:30:09,11:30:29,12,upward,15478.074
59,Hauz Khas,15403,11:32:58,11:33:18,13,upward,16891.973
81,Botanical Garden,15404,11:02:20,11:02:40,0,upward,0.0
161,Okhla Bird Sanctuary,15404,11:06:12,11:06:32,1,upward,2003.493
162,Kalindi Kunj,15404,11:09:07,11:09:27,2,upward,3589.032
163,Jasola Vihar Shaheen Bagh,15404,11:12:39,11:12:59,3,upward,5593.097
164,Okhla Vihar,15404,11:16:00,11:16:20,4,upward,7428.589
165,Jamia Millia Islamia,15404,11:18:47,11:19:07,5,upward,8372.665
166,Sukhdev Vihar,15404,11:21:40,11:22:00,6,upward,9604.107
167,Okhla NSIC,15404,11:24:18,11:24:38,7,upward,10754.323
131,Kalkaji Mandir,15404,11:26:35,11:26:55,8,upward,11547.502
182,Nehru Enclave,15404,11:28:31,11:28:51,9,upward,12378.613
183,Greater Kailash,15404,11:31:10,11:31:30,10,upward,13737.647
184,Chirag Delhi,15404,11:33:15,11:33:35,11,upward,14563.604
185,Panchsheel Park,15404,11:35:19,11:35:39,12,upward,15478.074
59,Hauz Khas,15404,11:38:08,11:38:28,13,upward,16891.973
81,Botanical Garden,15405,11:07:30,11:07:50,0,upward,0.0
161,Okhla Bird Sanctuary,15405,11:11:22,11:11:42,1,upward,2003.493
162,Kalindi Kunj,15405,11:14:17,11:14:37,2,upward,3589.032
163,Jasola Vihar Shaheen Bagh,15405,11:17:49,11:18:09,3,upward,5593.097
164,Okhla Vihar,15405,11:21:10,11:21:30,4,upward,7428.589
165,Jamia Millia Islamia,15405,11:23:57,11:24:17,5,upward,8372.665
166,Sukhdev Vihar,15405,11:26:50,11:27:10,6,upward,9604.107
167,Okhla NSIC,15405,11:29:28,11:29:48,7,upward,10754.323
131,Kalkaji Mandir,15405,11:31:45,11:32:05,8,upward,11547.502
182,Nehru Enclave,15405,11:33:41,11:34:01,9,upward,12378.613
183,Greater Kailash,15405,11:36:20,11:36:40,10,upward,13737.647
184,Chirag Delhi,15405,11:38:25,11:38:45,11,upward,14563.604
185,Panchsheel Park,15405,11:40:29,11:40:49,12,upward,15478.074
59,Hauz Khas,15405,11:43:18,11:43:38,13,upward,16891.973
81,Botanical Garden,15406,11:12:40,11:13:00,0,upward,0.0
161,Okhla Bird Sanctuary,15406,11:16:32,11:16:52,1,upward,2003.493
162,Kalindi Kunj,15406,11:19:27,11:19:47,2,upward,3589.032
163,Jasola Vihar Shaheen Bagh,15406,11:22:59,11:23:19,3,upward,5593.097
164,Okhla Vihar,15406,11:26:20,11:26:40,4,upward,7428.589
165,Jamia Millia Islamia,15406,11:29:07,11:29:27,5,upward,8372.665
166,Sukhdev Vihar,15406,11:32:00,11:32:20,6,upward,9604.107
167,Okhla NSIC,15406,11:34:38,11:34:58,7,upward,10754.323
131,Kalkaji Mandir,15406,11:36:55,11:37:15,8,upward,11547.502
182,Nehru Enclave,15406,11:38:51,11:39:11,9,upward,12378.613
183,Greater Kailash,15406,11:41:30,11:41:50,10,upward,13737.647
184,Chirag Delhi,15406,11:43:35,11:43:55,11,upward,14563.604
185,Panchsheel Park,15406,11:45:39,11:45:59,12,upward,15478.074
59,Hauz Khas,15406,11:48:28,11:48:48,13,upward,16891.973
81,Botanical Garden,15407,11:17:50,11:18:10,0,upward,0.0
161,Okhla Bird Sanctuary,15407,11:21:42,11:22:02,1,upward,2003.493
162,Kalindi Kunj,15407,11:24:37,11:24:57,2,upward,3589.032
163,Jasola Vihar Shaheen Bagh,15407,11:28:09,11:28:29,3,upward,5593.097
164,Okhla Vihar,15407,11:31:30,11:31:50,4,upward,7428.589
165,Jamia Millia Islamia,15407,11:34:17,11:34:37,5,upward,8372.665
166,Sukhdev Vihar,15407,11:37:10,11:37:30,6,upward,9604.107
167,Okhla NSIC,15407,11:39:48,11:40:08,7,upward,10754.323
131,Kalkaji Mandir,15407,11:42:05,11:42:25,8,upward,11547.502
182,Nehru Enclave,15407,11:44:01,11:44:21,9,upward,12378.613
183,Greater Kailash,15407,11:46:40,11:47:00,10,upward,13737.647
184,Chirag Delhi,15407,11:48:45,11:49:05,11,upward,14563.604
185,Panchsheel Park,15407,11:50:49,11:51:09,12,upward,15478.074
59,Hauz Khas,15407,11:53:38,11:53:58,13,upward,16891.973
81,Botanical Garden,15408,11:23:00,11:23:20,0,upward,0.0
161,Okhla Bird Sanctuary,15408,11:26:52,11:27:12,1,upward,2003.493
162,Kalindi Kunj,15408,11:29:47,11:30:07,2,upward,3589.032
163,Jasola Vihar Shaheen Bagh,15408,11:33:19,11:33:39,3,upward,5593.097
164,Okhla Vihar,15408,11:36:40,11:37:00,4,upward,7428.589
165,Jamia Millia Islamia,15408,11:39:27,11:39:47,5,upward,8372.665
166,Sukhdev Vihar,15408,11:42:20,11:42:40,6,upward,9604.107
167,Okhla NSIC,15408,11:44:58,11:45:18,7,upward,10754.323
131,Kalkaji Mandir,15408,11:47:15,11:47:35,8,upward,11547.502
182,Nehru Enclave,15408,11:49:11,11:49:31,9,upward,12378.613
183,Greater Kailash,15408,11:51:50,11:52:10,10,upward,13737.647
184,Chirag Delhi,15408,11:53:55,11:54:15,11,upward,14563.604
185,Panchsheel Park,15408,11:55:59,11:56:19,12,upward,15478.074
59,Hauz Khas,15408,11:58:48,11:59:08,13,upward,16891.973
81,Botanical Garden,15409,11:28:10,11:28:30,0,upward,0.0
161,Okhla Bird Sanctuary,15409,11:32:02,11:32:22,1,upward,2003.493
162,Kalindi Kunj,15409,11:34:57,11:35:17,2,upward,3589.032
163,Jasola Vihar Shaheen Bagh,15409,11:38:29,11:38:49,3,upward,5593.097
164,Okhla Vihar,15409,11:41:50,11:42:10,4,upward,7428.589
165,Jamia Millia Islamia,15409,11:44:37,11:44:57,5,upward,8372.665
166,Sukhdev Vihar,15409,11:47:30,11:47:50,6,upward,9604.107
167,Okhla NSIC,15409,11:50:08,11:50:28,7,upward,10754.323
131,Kalkaji Mandir,15409,11:52:25,11:52:45,8,upward,11547.502
182,Nehru Enclave,15409,11:54:21,11:54:41,9,upward,12378.613
183,Greater Kailash,15409,11:57:00,11:57:20,10,upward,13737.647
184,Chirag Delhi,15409,11:59:05,11:59:25,11,upward,14563.604
185,Panchsheel Park,15409,12:01:09,12:01:29,12,upward,15478.074
59,Hauz Khas,15409,12:03:58,12:04:18,13,upward,16891.973
81,Botanical Garden,15410,11:33:20,11:33:40,0,upward,0.0
161,Okhla Bird Sanctuary,15410,11:37:12,11:37:32,1,upward,2003.493
162,Kalindi Kunj,15410,11:40:07,11:40:27,2,upward,3589.032
163,Jasola Vihar Shaheen Bagh,15410,11:43:39,11:43:59,3,upward,5593.097
164,Okhla Vihar,15410,11:47:00,11:47:20,4,upward,7428.589
165,Jamia Millia Islamia,15410,11:49:47,11:50:07,5,upward,8372.665
166,Sukhdev Vihar,15410,11:52:40,11:53:00,6,upward,9604.107
167,Okhla NSIC,15410,11:55:18,11:55:38,7,upward,10754.323
131,Kalkaji Mandir,15410,11:57:35,11:57:55,8,upward,11547.502
182,Nehru Enclave,15410,11:59:31,11:59:51,9,upward,12378.613
183,Greater Kailash,15410,12:02:10,12:02:30,10,upward,13737.647
184,Chirag Delhi,15410,12:04:15,12:04:35,11,upward,14563.604
185,Panchsheel Park,15410,12:06:19,12:06:39,12,upward,15478.074
59,Hauz Khas,15410,12:09:08,12:09:28,13,upward,16891.973
81,Botanical Garden,15411,11:38:30,11:38:50,0,upward,0.0
161,Okhla Bird Sanctuary,15411,11:42:22,11:42:42,1,upward,2003.493
162,Kalindi Kunj,15411,11:45:17,11:45:37,2,upward,3589.032
163,Jasola Vihar Shaheen Bagh,15411,11:48:49,11:49:09,3,upward,5593.097
164,Okhla Vihar,15411,11:52:10,11:52:30,4,upward,7428.589
165,Jamia Millia Islamia,15411,11:54:57,11:55:17,5,upward,8372.665
166,Sukhdev Vihar,15411,11:57:50,11:58:10,6,upward,9604.107
167,Okhla NSIC,15411,12:00:28,12:00:48,7,upward,10754.323
131,Kalkaji Mandir,15411,12:02:45,12:03:05,8,upward,11547.502
182,Nehru Enclave,15411,12:04:41,12:05:01,9,upward,12378.613
183,Greater Kailash,15411,12:07:20,12:07:40,10,upward,13737.647
184,Chirag Delhi,15411,12:09:25,12:09:45,11,upward,14563.604
185,Panchsheel Park,15411,12:11:29,12:11:49,12,upward,15478.074
59,Hauz Khas,15411,12:14:18,12:14:38,13,upward,16891.973
81,Botanical Garden,15412,11:43:40,11:44:00,0,upward,0.0
161,Okhla Bird Sanctuary,15412,11:47:32,11:47:52,1,upward,2003.493
162,Kalindi Kunj,15412,11:50:27,11:50:47,2,upward,3589.032
163,Jasola Vihar Shaheen Bagh,15412,11:53:59,11:54:19,3,upward,5593.097
164,Okhla Vihar,15412,11:57:20,11:57:40,4,upward,7428.589
165,Jamia Millia Islamia,15412,12:00:07,12:00:27,5,upward,8372.665
166,Sukhdev Vihar,15412,12:03:00,12:03:20,6,upward,9604.107
167,Okhla NSIC,15412,12:05:38,12:05:58,7,upward,10754.323
131,Kalkaji Mandir,15412,12:07:55,12:08:15,8,upward,11547.502
182,Nehru Enclave,15412,12:09:51,12:10:11,9,upward,12378.613
183,Greater Kailash,15412,12:12:30,12:12:50,10,upward,13737.647
184,Chirag Delhi,15412,12:14:35,12:14:55,11,upward,14563.604
185,Panchsheel Park,15412,12:16:39,12:16:59,12,upward,15478.074
59,Hauz Khas,15412,12:19:28,12:19:48,13,upward,16891.973
81,Botanical Garden,15413,11:48:50,11:49:10,0,upward,0.0
161,Okhla Bird Sanctuary,15413,11:52:42,11:53:02,1,upward,2003.493
162,Kalindi Kunj,15413,11:55:37,11:55:57,2,upward,3589.032
163,Jasola Vihar Shaheen Bagh,15413,11:59:09,11:59:29,3,upward,5593.097
164,Okhla Vihar,15413,12:02:30,12:02:50,4,upward,7428.589
165,Jamia Millia Islamia,15413,12:05:17,12:05:37,5,upward,8372.665
166,Sukhdev Vihar,15413,12:08:10,12:08:30,6,upward,9604.107
167,Okhla NSIC,15413,12:10:48,12:11:08,7,upward,10754.323
131,Kalkaji Mandir,15413,12:13:05,12:13:25,8,upward,11547.502
182,Nehru Enclave,15413,12:15:01,12:15:21,9,upward,12378.613
183,Greater Kailash,15413,12:17:40,12:18:00,10,upward,13737.647
184,Chirag Delhi,15413,12:19:45,12:20:05,11,upward,14563.604
185,Panchsheel Park,15413,12:21:49,12:22:09,12,upward,15478.074
59,Hauz Khas,15413,12:24:38,12:24:58,13,upward,16891.973
81,Botanical Garden,15414,11:54:00,11:54:20,0,upward,0.0
161,Okhla Bird Sanctuary,15414,11:57:52,11:58:12,1,upward,2003.493
162,Kalindi Kunj,15414,12:00:47,12:01:07,2,upward,3589.032
163,Jasola Vihar Shaheen Bagh,15414,12:04:19,12:04:39,3,upward,5593.097
164,Okhla Vihar,15414,12:07:40,12:08:00,4,upward,7428.589
165,Jamia Millia Islamia,15414,12:10:27,12:10:47,5,upward,8372.665
166,Sukhdev Vihar,15414,12:13:20,12:13:40,6,upward,9604.107
167,Okhla NSIC,15414,12:15:58,12:16:18,7,upward,10754.323
131,Kalkaji Mandir,15414,12:18:15,12:18:35,8,upward,11547.502
182,Nehru Enclave,15414,12:20:11,12:20:31,9,upward,12378.613
183,Greater Kailash,15414,12:22:50,12:23:10,10,upward,13737.647
184,Chirag Delhi,15414,12:24:55,12:25:15,11,upward,14563.604
185,Panchsheel Park,15414,12:26:59,12:27:19,12,upward,15478.074
59,Hauz Khas,15414,12:29:48,12:30:08,13,upward,16891.973
81,Botanical Garden,15415,11:59:10,11:59:30,0,upward,0.0
161,Okhla Bird Sanctuary,15415,12:03:02,12:03:22,1,upward,2003.493
162,Kalindi Kunj,15415,12:05:57,12:06:17,2,upward,3589.032
163,Jasola Vihar Shaheen Bagh,15415,12:09:29,12:09:49,3,upward,5593.097
164,Okhla Vihar,15415,12:12:50,12:13:10,4,upward,7428.589
165,Jamia Millia Islamia,15415,12:15:37,12:15:57,5,upward,8372.665
166,Sukhdev Vihar,15415,12:18:30,12:18:50,6,upward,9604.107
167,Okhla NSIC,15415,12:21:08,12:21:28,7,upward,10754.323
131,Kalkaji Mandir,15415,12:23:25,12:23:45,8,upward,11547.502
182,Nehru Enclave,15415,12:25:21,12:25:41,9,upward,12378.613
183,Greater Kailash,15415,12:28:00,12:28:20,10,upward,13737.647
184,Chirag Delhi,15415,12:30:05,12:30:25,11,upward,14563.604
185,Panchsheel Park,15415,12:32:09,12:32:29,12,upward,15478.074
59,Hauz Khas,15415,12:34:58,12:35:18,13,upward,16891.973
81,Botanical Garden,15416,12:04:20,12:04:40,0,upward,0.0
161,Okhla Bird Sanctuary,15416,12:08:12,12:08:32,1,upward,2003.493
162,Kalindi Kunj,15416,12:11:07,12:11:27,2,upward,3589.032
163,Jasola Vihar Shaheen Bagh,15416,12:14:39,12:14:59,3,upward,5593.097
164,Okhla Vihar,15416,12:18:00,12:18:20,4,upward,7428.589
165,Jamia Millia Islamia,15416,12:20:47,12:21:07,5,upward,8372.665
166,Sukhdev Vihar,15416,12:23:40,12:24:00,6,upward,9604.107
167,Okhla NSIC,15416,12:26:18,12:26:38,7,upward,10754.323
131,Kalkaji Mandir,15416,12:28:35,12:28:55,8,upward,11547.502
182,Nehru Enclave,15416,12:30:31,12:30:51,9,upward,12378.613
183,Greater Kailash,15416,12:33:10,12:33:30,10,upward,13737.647
184,Chirag Delhi,15416,12:35:15,12:35:35,11,upward,14563.604
185,Panchsheel Park,15416,12:37:19,12:37:39,12,upward,15478.074
59,Hauz Khas,15416,12:40:08,12:40:28,13,upward,16891.973
81,Botanical Garden,15417,12:11:05,12:11:25,0,upward,0.0
161,Okhla Bird Sanctuary,15417,12:14:57,12:15:17,1,upward,2003.493
162,Kalindi Kunj,15417,12:17:52,12:18:12,2,upward,3589.032
163,Jasola Vihar Shaheen Bagh,15417,12:21:24,12:21:44,3,upward,5593.097
164,Okhla Vihar,15417,12:24:45,12:25:05,4,upward,7428.589
165,Jamia Millia Islamia,15417,12:27:32,12:27:52,5,upward,8372.665
166,Sukhdev Vihar,15417,12:30:25,12:30:45,6,upward,9604.107
167,Okhla NSIC,15417,12:33:03,12:33:23,7,upward,10754.323
131,Kalkaji Mandir,15417,12:35:20,12:35:40,8,upward,11547.502
182,Nehru Enclave,15417,12:37:16,12:37:36,9,upward,12378.613
183,Greater Kailash,15417,12:39:55,12:40:15,10,upward,13737.647
184,Chirag Delhi,15417,12:42:00,12:42:20,11,upward,14563.604
185,Panchsheel Park,15417,12:44:04,12:44:24,12,upward,15478.074
59,Hauz Khas,15417,12:46:53,12:47:13,13,upward,16891.973
81,Botanical Garden,15418,12:17:50,12:18:10,0,upward,0.0
161,Okhla Bird Sanctuary,15418,12:21:42,12:22:02,1,upward,2003.493
162,Kalindi Kunj,15418,12:24:37,12:24:57,2,upward,3589.032
163,Jasola Vihar Shaheen Bagh,15418,12:28:09,12:28:29,3,upward,5593.097
164,Okhla Vihar,15418,12:31:30,12:31:50,4,upward,7428.589
165,Jamia Millia Islamia,15418,12:34:17,12:34:37,5,upward,8372.665
166,Sukhdev Vihar,15418,12:37:10,12:37:30,6,upward,9604.107
167,Okhla NSIC,15418,12:39:48,12:40:08,7,upward,10754.323
131,Kalkaji Mandir,15418,12:42:05,12:42:25,8,upward,11547.502
182,Nehru Enclave,15418,12:44:01,12:44:21,9,upward,12378.613
183,Greater Kailash,15418,12:46:40,12:47:00,10,upward,13737.647
184,Chirag Delhi,15418,12:48:45,12:49:05,11,upward,14563.604
185,Panchsheel Park,15418,12:50:49,12:51:09,12,upward,15478.074
59,Hauz Khas,15418,12:53:38,12:53:58,13,upward,16891.973
81,Botanical Garden,15419,12:24:35,12:24:55,0,upward,0.0
161,Okhla Bird Sanctuary,15419,12:28:27,12:28:47,1,upward,2003.493
162,Kalindi Kunj,15419,12:31:22,12:31:42,2,upward,3589.032
163,Jasola Vihar Shaheen Bagh,15419,12:34:54,12:35:14,3,upward,5593.097
164,Okhla Vihar,15419,12:38:15,12:38:35,4,upward,7428.589
165,Jamia Millia Islamia,15419,12:41:02,12:41:22,5,upward,8372.665
166,Sukhdev Vihar,15419,12:43:55,12:44:15,6,upward,9604.107
167,Okhla NSIC,15419,12:46:33,12:46:53,7,upward,10754.323
131,Kalkaji Mandir,15419,12:48:50,12:49:10,8,upward,11547.502
182,Nehru Enclave,15419,12:50:46,12:51:06,9,upward,12378.613
183,Greater Kailash,15419,12:53:25,12:53:45,10,upward,13737.647
184,Chirag Delhi,15419,12:55:30,12:55:50,11,upward,14563.604
185,Panchsheel Park,15419,12:57:34,12:57:54,12,upward,15478.074
59,Hauz Khas,15419,13:00:23,13:00:43,13,upward,16891.973
81,Botanical Garden,15420,12:31:20,12:31:40,0,upward,0.0
161,Okhla Bird Sanctuary,15420,12:35:12,12:35:32,1,upward,2003.493
162,Kalindi Kunj,15420,12:38:07,12:38:27,2,upward,3589.032
163,Jasola Vihar Shaheen Bagh,15420,12:41:39,12:41:59,3,upward,5593.097
164,Okhla Vihar,15420,12:45:00,12:45:20,4,upward,7428.589
165,Jamia Millia Islamia,15420,12:47:47,12:48:07,5,upward,8372.665
166,Sukhdev Vihar,15420,12:50:40,12:51:00,6,upward,9604.107
167,Okhla NSIC,15420,12:53:18,12:53:38,7,upward,10754.323
131,Kalkaji Mandir,15420,12:55:35,12:55:55,8,upward,11547.502
182,Nehru Enclave,15420,12:57:31,12:57:51,9,upward,12378.613
183,Greater Kailash,15420,13:00:10,13:00:30,10,upward,13737.647
184,Chirag Delhi,15420,13:02:15,13:02:35,11,upward,14563.604
185,Panchsheel Park,15420,13:04:19,13:04:39,12,upward,15478.074
59,Hauz Khas,15420,13:07:08,13:07:28,13,upward,16891.973
81,Botanical Garden,15421,12:38:05,12:38:25,0,upward,0.0
161,Okhla Bird Sanctuary,15421,12:41:57,12:42:17,1,upward,2003.493
162,Kalindi Kunj,15421,12:44:52,12:45:12,2,upward,3589.032
163,Jasola Vihar Shaheen Bagh,15421,12:48:24,12:48:44,3,upward,5593.097
164,Okhla Vihar,15421,12:51:45,12:52:05,4,upward,7428.589
165,Jamia Millia Islamia,15421,12:54:32,12:54:52,5,upward,8372.665
166,Sukhdev Vihar,15421,12:57:25,12:57:45,6,upward,9604.107
167,Okhla NSIC,15421,13:00:03,13:00:23,7,upward,10754.323
131,Kalkaji Mandir,15421,13:02:20,13:02:40,8,upward,11547.502
182,Nehru Enclave,15421,13:04:16,13:04:36,9,upward,12378.613
183,Greater Kailash,15421,13:06:55,13:07:15,10,upward,13737.647
184,Chirag Delhi,15421,13:09:00,13:09:20,11,upward,14563.604
185,Panchsheel Park,15421,13:11:04,13:11:24,12,upward,15478.074
59,Hauz Khas,15421,13:13:53,13:14:13,13,upward,16891.973
81,Botanical Garden,15422,12:44:50,12:45:10,0,upward,0.0
161,Okhla Bird Sanctuary,15422,12:48:42,12:49:02,1,upward,2003.493
162,Kalindi Kunj,15422,12:51:37,12:51:57,2,upward,3589.032
163,Jasola Vihar Shaheen Bagh,15422,12:55:09,12:55:29,3,upward,5593.097
164,Okhla Vihar,15422,12:58:30,12:58:50,4,upward,7428.589
165,Jamia Millia Islamia,15422,13:01:17,13:01:37,5,upward,8372.665
166,Sukhdev Vihar,15422,13:04:10,13:04:30,6,upward,9604.107
167,Okhla NSIC,15422,13:06:48,13:07:08,7,upward,10754.323
131,Kalkaji Mandir,15422,13:09:05,13:09:25,8,upward,11547.502
182,Nehru Enclave,15422,13:11:01,13:11:21,9,upward,12378.613
183,Greater Kailash,15422,13:13:40,13:14:00,10,upward,13737.647
184,Chirag Delhi,15422,13:15:45,13:16:05,11,upward,14563.604
185,Panchsheel Park,15422,13:17:49,13:18:09,12,upward,15478.074
59,Hauz Khas,15422,13:20:38,13:20:58,13,upward,16891.973
81,Botanical Garden,15423,12:51:35,12:51:55,0,upward,0.0
161,Okhla Bird Sanctuary,15423,12:55:27,12:55:47,1,upward,2003.493
162,Kalindi Kunj,15423,12:58:22,12:58:42,2,upward,3589.032
163,Jasola Vihar Shaheen Bagh,15423,13:01:54,13:02:14,3,upward,5593.097
164,Okhla Vihar,15423,13:05:15,13:05:35,4,upward,7428.589
165,Jamia Millia Islamia,15423,13:08:02,13:08:22,5,upward,8372.665
166,Sukhdev Vihar,15423,13:10:55,13:11:15,6,upward,9604.107
167,Okhla NSIC,15423,13:13:33,13:13:53,7,upward,10754.323
131,Kalkaji Mandir,15423,13:15:50,13:16:10,8,upward,11547.502
182,Nehru Enclave,15423,13:17:46,13:18:06,9,upward,12378.613
183,Greater Kailash,15423,13:20:25,13:20:45,10,upward,13737.647
184,Chirag Delhi,15423,13:22:30,13:22:50,11,upward,14563.604
185,Panchsheel Park,15423,13:24:34,13:24:54,12,upward,15478.074
59,Hauz Khas,15423,13:27:23,13:27:43,13,upward,16891.973
81,Botanical Garden,15424,12:58:20,12:58:40,0,upward,0.0
161,Okhla Bird Sanctuary,15424,13:02:12,13:02:32,1,upward,2003.493
162,Kalindi Kunj,15424,13:05:07,13:05:27,2,upward,3589.032
163,Jasola Vihar Shaheen Bagh,15424,13:08:39,13:08:59,3,upward,5593.097
164,Okhla Vihar,15424,13:12:00,13:12:20,4,upward,7428.589
165,Jamia Millia Islamia,15424,13:14:47,13:15:07,5,upward,8372.665
166,Sukhdev Vihar,15424,13:17:40,13:18:00,6,upward,9604.107
167,Okhla NSIC,15424,13:20:18,13:20:38,7,upward,10754.323
131,Kalkaji Mandir,15424,13:22:35,13:22:55,8,upward,11547.502
182,Nehru Enclave,15424,13:24:31,13:24:51,9,upward,12378.613
183,Greater Kailash,15424,13:27:10,13:27:30,10,upward,13737.647
184,Chirag Delhi,15424,13:29:15,13:29:35,11,upward,14563.604
185,Panchsheel Park,15424,13:31:19,13:31:39,12,upward,15478.074
59,Hauz Khas,15424,13:34:08,13:34:28,13,upward,16891.973
81,Botanical Garden,15425,13:05:05,13:05:25,0,upward,0.0
161,Okhla Bird Sanctuary,15425,13:08:57,13:09:17,1,upward,2003.493
162,Kalindi Kunj,15425,13:11:52,13:12:12,2,upward,3589.032
163,Jasola Vihar Shaheen Bagh,15425,13:15:24,13:15:44,3,upward,5593.097
164,Okhla Vihar,15425,13:18:45,13:19:05,4,upward,7428.589
165,Jamia Millia Islamia,15425,13:21:32,13:21:52,5,upward,8372.665
166,Sukhdev Vihar,15425,13:24:25,13:24:45,6,upward,9604.107
167,Okhla NSIC,15425,13:27:03,13:27:23,7,upward,10754.323
131,Kalkaji Mandir,15425,13:29:20,13:29:40,8,upward,11547.502
182,Nehru Enclave,15425,13:31:16,13:31:36,9,upward,12378.613
183,Greater Kailash,15425,13:33:55,13:34:15,10,upward,13737.647
184,Chirag Delhi,15425,13:36:00,13:36:20,11,upward,14563.604
185,Panchsheel Park,15425,13:38:04,13:38:24,12,upward,15478.074
59,Hauz Khas,15425,13:40:53,13:41:13,13,upward,16891.973
81,Botanical Garden,15426,13:11:50,13:12:10,0,upward,0.0
161,Okhla Bird Sanctuary,15426,13:15:42,13:16:02,1,upward,2003.493
162,Kalindi Kunj,15426,13:18:37,13:18:57,2,upward,3589.032
163,Jasola Vihar Shaheen Bagh,15426,13:22:09,13:22:29,3,upward,5593.097
164,Okhla Vihar,15426,13:25:30,13:25:50,4,upward,7428.589
165,Jamia Millia Islamia,15426,13:28:17,13:28:37,5,upward,8372.665
166,Sukhdev Vihar,15426,13:31:10,13:31:30,6,upward,9604.107
167,Okhla NSIC,15426,13:33:48,13:34:08,7,upward,10754.323
131,Kalkaji Mandir,15426,13:36:05,13:36:25,8,upward,11547.502
182,Nehru Enclave,15426,13:38:01,13:38:21,9,upward,12378.613
183,Greater Kailash,15426,13:40:40,13:41:00,10,upward,13737.647
184,Chirag Delhi,15426,13:42:45,13:43:05,11,upward,14563.604
185,Panchsheel Park,15426,13:44:49,13:45:09,12,upward,15478.074
59,Hauz Khas,15426,13:47:38,13:47:58,13,upward,16891.973
81,Botanical Garden,15427,13:18:35,13:18:55,0,upward,0.0
161,Okhla Bird Sanctuary,15427,13:22:27,13:22:47,1,upward,2003.493
162,Kalindi Kunj,15427,13:25:22,13:25:42,2,upward,3589.032
163,Jasola Vihar Shaheen Bagh,15427,13:28:54,13:29:14,3,upward,5593.097
164,Okhla Vihar,15427,13:32:15,13:32:35,4,upward,7428.589
165,Jamia Millia Islamia,15427,13:35:02,13:35:22,5,upward,8372.665
166,Sukhdev Vihar,15427,13:37:55,13:38:15,6,upward,9604.107
167,Okhla NSIC,15427,13:40:33,13:40:53,7,upward,10754.323
131,Kalkaji Mandir,15427,13:42:50,13:43:10,8,upward,11547.502
182,Nehru Enclave,15427,13:44:46,13:45:06,9,upward,12378.613
183,Greater Kailash,15427,13:47:25,13:47:45,10,upward,13737.647
184,Chirag Delhi,15427,13:49:30,13:49:50,11,upward,14563.604
185,Panchsheel Park,15427,13:51:34,13:51:54,12,upward,15478.074
59,Hauz Khas,15427,13:54:23,13:54:43,13,upward,16891.973
81,Botanical Garden,15428,13:25:20,13:25:40,0,upward,0.0
161,Okhla Bird Sanctuary,15428,13:29:12,13:29:32,1,upward,2003.493
162,Kalindi Kunj,15428,13:32:07,13:32:27,2,upward,3589.032
163,Jasola Vihar Shaheen Bagh,15428,13:35:39,13:35:59,3,upward,5593.097
164,Okhla Vihar,15428,13:39:00,13:39:20,4,upward,7428.589
165,Jamia Millia Islamia,15428,13:41:47,13:42:07,5,upward,8372.665
166,Sukhdev Vihar,15428,13:44:40,13:45:00,6,upward,9604.107
167,Okhla NSIC,15428,13:47:18,13:47:38,7,upward,10754.323
131,Kalkaji Mandir,15428,13:49:35,13:49:55,8,upward,11547.502
182,Nehru Enclave,15428,13:51:31,13:51:51,9,upward,12378.613
183,Greater Kailash,15428,13:54:10,13:54:30,10,upward,13737.647
184,Chirag Delhi,15428,13:56:15,13:56:35,11,upward,14563.604
185,Panchsheel Park,15428,13:58:19,13:58:39,12,upward,15478.074
59,Hauz Khas,15428,14:01:08,14:01:28,13,upward,16891.973
81,Botanical Garden,15429,13:32:05,13:32:25,0,upward,0.0
161,Okhla Bird Sanctuary,15429,13:35:57,13:36:17,1,upward,2003.493
162,Kalindi Kunj,15429,13:38:52,13:39:12,2,upward,3589.032
163,Jasola Vihar Shaheen Bagh,15429,13:42:24,13:42:44,3,upward,5593.097
164,Okhla Vihar,15429,13:45:45,13:46:05,4,upward,7428.589
165,Jamia Millia Islamia,15429,13:48:32,13:48:52,5,upward,8372.665
166,Sukhdev Vihar,15429,13:51:25,13:51:45,6,upward,9604.107
167,Okhla NSIC,15429,13:54:03,13:54:23,7,upward,10754.323
131,Kalkaji Mandir,15429,13:56:20,13:56:40,8,upward,11547.502
182,Nehru Enclave,15429,13:58:16,13:58:36,9,upward,12378.613
183,Greater Kailash,15429,14:00:55,14:01:15,10,upward,13737.647
184,Chirag Delhi,15429,14:03:00,14:03:20,11,upward,14563.604
185,Panchsheel Park,15429,14:05:04,14:05:24,12,upward,15478.074
59,Hauz Khas,15429,14:07:53,14:08:13,13,upward,16891.973
81,Botanical Garden,15430,13:38:50,13:39:10,0,upward,0.0
161,Okhla Bird Sanctuary,15430,13:42:42,13:43:02,1,upward,2003.493
162,Kalindi Kunj,15430,13:45:37,13:45:57,2,upward,3589.032
163,Jasola Vihar Shaheen Bagh,15430,13:49:09,13:49:29,3,upward,5593.097
164,Okhla Vihar,15430,13:52:30,13:52:50,4,upward,7428.589
165,Jamia Millia Islamia,15430,13:55:17,13:55:37,5,upward,8372.665
166,Sukhdev Vihar,15430,13:58:10,13:58:30,6,upward,9604.107
167,Okhla NSIC,15430,14:00:48,14:01:08,7,upward,10754.323
131,Kalkaji Mandir,15430,14:03:05,14:03:25,8,upward,11547.502
182,Nehru Enclave,15430,14:05:01,14:05:21,9,upward,12378.613
183,Greater Kailash,15430,14:07:40,14:08:00,10,upward,13737.647
184,Chirag Delhi,15430,14:09:45,14:10:05,11,upward,14563.604
185,Panchsheel Park,15430,14:11:49,14:12:09,12,upward,15478.074
59,Hauz Khas,15430,14:14:38,14:14:58,13,upward,16891.973
81,Botanical Garden,15431,13:45:35,13:45:55,0,upward,0.0
161,Okhla Bird Sanctuary,15431,13:49:27,13:49:47,1,upward,2003.493
162,Kalindi Kunj,15431,13:52:22,13:52:42,2,upward,3589.032
163,Jasola Vihar Shaheen Bagh,15431,13:55:54,13:56:14,3,upward,5593.097
164,Okhla Vihar,15431,13:59:15,13:59:35,4,upward,7428.589
165,Jamia Millia Islamia,15431,14:02:02,14:02:22,5,upward,8372.665
166,Sukhdev Vihar,15431,14:04:55,14:05:15,6,upward,9604.107
167,Okhla NSIC,15431,14:07:33,14:07:53,7,upward,10754.323
131,Kalkaji Mandir,15431,14:09:50,14:10:10,8,upward,11547.502
182,Nehru Enclave,15431,14:11:46,14:12:06,9,upward,12378.613
183,Greater Kailash,15431,14:14:25,14:14:45,10,upward,13737.647
184,Chirag Delhi,15431,14:16:30,14:16:50,11,upward,14563.604
185,Panchsheel Park,15431,14:18:34,14:18:54,12,upward,15478.074
59,Hauz Khas,15431,14:21:23,14:21:43,13,upward,16891.973
81,Botanical Garden,15432,13:52:20,13:52:40,0,upward,0.0
161,Okhla Bird Sanctuary,15432,13:56:12,13:56:32,1,upward,2003.493
162,Kalindi Kunj,15432,13:59:07,13:59:27,2,upward,3589.032
163,Jasola Vihar Shaheen Bagh,15432,14:02:39,14:02:59,3,upward,5593.097
164,Okhla Vihar,15432,14:06:00,14:06:20,4,upward,7428.589
165,Jamia Millia Islamia,15432,14:08:47,14:09:07,5,upward,8372.665
166,Sukhdev Vihar,15432,14:11:40,14:12:00,6,upward,9604.107
167,Okhla NSIC,15432,14:14:18,14:14:38,7,upward,10754.323
131,Kalkaji Mandir,15432,14:16:35,14:16:55,8,upward,11547.502
182,Nehru Enclave,15432,14:18:31,14:18:51,9,upward,12378.613
183,Greater Kailash,15432,14:21:10,14:21:30,10,upward,13737.647
184,Chirag Delhi,15432,14:23:15,14:23:35,11,upward,14563.604
185,Panchsheel Park,15432,14:25:19,14:25:39,12,upward,15478.074
59,Hauz Khas,15432,14:28:08,14:28:28,13,upward,16891.973
81,Botanical Garden,15433,13:59:05,13:59:25,0,upward,0.0
161,Okhla Bird Sanctuary,15433,14:02:57,14:03:17,1,upward,2003.493
162,Kalindi Kunj,15433,14:05:52,14:06:12,2,upward,3589.032
163,Jasola Vihar Shaheen Bagh,15433,14:09:24,14:09:44,3,upward,5593.097
164,Okhla Vihar,15433,14:12:45,14:13:05,4,upward,7428.589
165,Jamia Millia Islamia,15433,14:15:32,14:15:52,5,upward,8372.665
166,Sukhdev Vihar,15433,14:18:25,14:18:45,6,upward,9604.107
167,Okhla NSIC,15433,14:21:03,14:21:23,7,upward,10754.323
131,Kalkaji Mandir,15433,14:23:20,14:23:40,8,upward,11547.502
182,Nehru Enclave,15433,14:25:16,14:25:36,9,upward,12378.613
183,Greater Kailash,15433,14:27:55,14:28:15,10,upward,13737.647
184,Chirag Delhi,15433,14:30:00,14:30:20,11,upward,14563.604
185,Panchsheel Park,15433,14:32:04,14:32:24,12,upward,15478.074
59,Hauz Khas,15433,14:34:53,14:35:13,13,upward,16891.973
81,Botanical Garden,15434,14:05:50,14:06:10,0,upward,0.0
161,Okhla Bird Sanctuary,15434,14:09:42,14:10:02,1,upward,2003.493
162,Kalindi Kunj,15434,14:12:37,14:12:57,2,upward,3589.032
163,Jasola Vihar Shaheen Bagh,15434,14:16:09,14:16:29,3,upward,5593.097
164,Okhla Vihar,15434,14:19:30,14:19:50,4,upward,7428.589
165,Jamia Millia Islamia,15434,14:22:17,14:22:37,5,upward,8372.665
166,Sukhdev Vihar,15434,14:25:10,14:25:30,6,upward,9604.107
167,Okhla NSIC,15434,14:27:48,14:28:08,7,upward,10754.323
131,Kalkaji Mandir,15434,14:30:05,14:30:25,8,upward,11547.502
182,Nehru Enclave,15434,14:32:01,14:32:21,9,upward,12378.613
183,Greater Kailash,15434,14:34:40,14:35:00,10,upward,13737.647
184,Chirag Delhi,15434,14:36:45,14:37:05,11,upward,14563.604
185,Panchsheel Park,15434,14:38:49,14:39:09,12,upward,15478.074
59,Hauz Khas,15434,14:41:38,14:41:58,13,upward,16891.973
81,Botanical Garden,15435,14:12:35,14:12:55,0,upward,0.0
161,Okhla Bird Sanctuary,15435,14:16:27,14:16:47,1,upward,2003.493
162,Kalindi Kunj,15435,14:19:22,14:19:42,2,upward,3589.032
163,Jasola Vihar Shaheen Bagh,15435,14:22:54,14:23:14,3,upward,5593.097
164,Okhla Vihar,15435,14:26:15,14:26:35,4,upward,7428.589
165,Jamia Millia Islamia,15435,14:29:02,14:29:22,5,upward,8372.665
166,Sukhdev Vihar,15435,14:31:55,14:32:15,6,upward,9604.107
167,Okhla NSIC,15435,14:34:33,14:34:53,7,upward,10754.323
131,Kalkaji Mandir,15435,14:36:50,14:37:10,8,upward,11547.502
182,Nehru Enclave,15435,14:38:46,14:39:06,9,upward,12378.613
183,Greater Kailash,15435,14:41:25,14:41:45,10,upward,13737.647
184,Chirag Delhi,15435,14:43:30,14:43:50,11,upward,14563.604
185,Panchsheel Park,15435,14:45:34,14:45:54,12,upward,15478.074
59,Hauz Khas,15435,14:48:23,14:48:43,13,upward,16891.973
81,Botanical Garden,15436,14:19:20,14:19:40,0,upward,0.0
161,Okhla Bird Sanctuary,15436,14:23:12,14:23:32,1,upward,2003.493
162,Kalindi Kunj,15436,14:26:07,14:26:27,2,upward,3589.032
163,Jasola Vihar Shaheen Bagh,15436,14:29:39,14:29:59,3,upward,5593.097
164,Okhla Vihar,15436,14:33:00,14:33:20,4,upward,7428.589
165,Jamia Millia Islamia,15436,14:35:47,14:36:07,5,upward,8372.665
166,Sukhdev Vihar,15436,14:38:40,14:39:00,6,upward,9604.107
167,Okhla NSIC,15436,14:41:18,14:41:38,7,upward,10754.323
131,Kalkaji Mandir,15436,14:43:35,14:43:55,8,upward,11547.502
182,Nehru Enclave,15436,14:45:31,14:45:51,9,upward,12378.613
183,Greater Kailash,15436,14:48:10,14:48:30,10,upward,13737.647
184,Chirag Delhi,15436,14:50:15,14:50:35,11,upward,14563.604
185,Panchsheel Park,15436,14:52:19,14:52:39,12,upward,15478.074
59,Hauz Khas,15436,14:55:08,14:55:28,13,upward,16891.973
81,Botanical Garden,15437,14:26:05,14:26:25,0,upward,0.0
161,Okhla Bird Sanctuary,15437,14:29:57,14:30:17,1,upward,2003.493
162,Kalindi Kunj,15437,14:32:52,14:33:12,2,upward,3589.032
163,Jasola Vihar Shaheen Bagh,15437,14:36:24,14:36:44,3,upward,5593.097
164,Okhla Vihar,15437,14:39:45,14:40:05,4,upward,7428.589
165,Jamia Millia Islamia,15437,14:42:32,14:42:52,5,upward,8372.665
166,Sukhdev Vihar,15437,14:45:25,14:45:45,6,upward,9604.107
167,Okhla NSIC,15437,14:48:03,14:48:23,7,upward,10754.323
131,Kalkaji Mandir,15437,14:50:20,14:50:40,8,upward,11547.502
182,Nehru Enclave,15437,14:52:16,14:52:36,9,upward,12378.613
183,Greater Kailash,15437,14:54:55,14:55:15,10,upward,13737.647
184,Chirag Delhi,15437,14:57:00,14:57:20,11,upward,14563.604
185,Panchsheel Park,15437,14:59:04,14:59:24,12,upward,15478.074
59,Hauz Khas,15437,15:01:53,15:02:13,13,upward,16891.973
81,Botanical Garden,15438,14:32:50,14:33:10,0,upward,0.0
161,Okhla Bird Sanctuary,15438,14:36:42,14:37:02,1,upward,2003.493
162,Kalindi Kunj,15438,14:39:37,14:39:57,2,upward,3589.032
163,Jasola Vihar Shaheen Bagh,15438,14:43:09,14:43:29,3,upward,5593.097
164,Okhla Vihar,15438,14:46:30,14:46:50,4,upward,7428.589
165,Jamia Millia Islamia,15438,14:49:17,14:49:37,5,upward,8372.665
166,Sukhdev Vihar,15438,14:52:10,14:52:30,6,upward,9604.107
167,Okhla NSIC,15438,14:54:48,14:55:08,7,upward,10754.323
131,Kalkaji Mandir,15438,14:57:05,14:57:25,8,upward,11547.502
182,Nehru Enclave,15438,14:59:01,14:59:21,9,upward,12378.613
183,Greater Kailash,15438,15:01:40,15:02:00,10,upward,13737.647
184,Chirag Delhi,15438,15:03:45,15:04:05,11,upward,14563.604
185,Panchsheel Park,15438,15:05:49,15:06:09,12,upward,15478.074
59,Hauz Khas,15438,15:08:38,15:08:58,13,upward,16891.973
81,Botanical Garden,15439,14:39:35,14:39:55,0,upward,0.0
161,Okhla Bird Sanctuary,15439,14:43:27,14:43:47,1,upward,2003.493
162,Kalindi Kunj,15439,14:46:22,14:46:42,2,upward,3589.032
163,Jasola Vihar Shaheen Bagh,15439,14:49:54,14:50:14,3,upward,5593.097
164,Okhla Vihar,15439,14:53:15,14:53:35,4,upward,7428.589
165,Jamia Millia Islamia,15439,14:56:02,14:56:22,5,upward,8372.665
166,Sukhdev Vihar,15439,14:58:55,14:59:15,6,upward,9604.107
167,Okhla NSIC,15439,15:01:33,15:01:53,7,upward,10754.323
131,Kalkaji Mandir,15439,15:03:50,15:04:10,8,upward,11547.502
182,Nehru Enclave,15439,15:05:46,15:06:06,9,upward,12378.613
183,Greater Kailash,15439,15:08:25,15:08:45,10,upward,13737.647
184,Chirag Delhi,15439,15:10:30,15:10:50,11,upward,14563.604
185,Panchsheel Park,15439,15:12:34,15:12:54,12,upward,15478.074
59,Hauz Khas,15439,15:15:23,15:15:43,13,upward,16891.973
81,Botanical Garden,15440,14:46:20,14:46:40,0,upward,0.0
161,Okhla Bird Sanctuary,15440,14:50:12,14:50:32,1,upward,2003.493
162,Kalindi Kunj,15440,14:53:07,14:53:27,2,upward,3589.032
163,Jasola Vihar Shaheen Bagh,15440,14:56:39,14:56:59,3,upward,5593.097
164,Okhla Vihar,15440,15:00:00,15:00:20,4,upward,7428.589
165,Jamia Millia Islamia,15440,15:02:47,15:03:07,5,upward,8372.665
166,Sukhdev Vihar,15440,15:05:40,15:06:00,6,upward,9604.107
167,Okhla NSIC,15440,15:08:18,15:08:38,7,upward,10754.323
131,Kalkaji Mandir,15440,15:10:35,15:10:55,8,upward,11547.502
182,Nehru Enclave,15440,15:12:31,15:12:51,9,upward,12378.613
183,Greater Kailash,15440,15:15:10,15:15:30,10,upward,13737.647
184,Chirag Delhi,15440,15:17:15,15:17:35,11,upward,14563.604
185,Panchsheel Park,15440,15:19:19,15:19:39,12,upward,15478.074
59,Hauz Khas,15440,15:22:08,15:22:28,13,upward,16891.973
81,Botanical Garden,15441,14:53:05,14:53:25,0,upward,0.0
161,Okhla Bird Sanctuary,15441,14:56:57,14:57:17,1,upward,2003.493
162,Kalindi Kunj,15441,14:59:52,15:00:12,2,upward,3589.032
163,Jasola Vihar Shaheen Bagh,15441,15:03:24,15:03:44,3,upward,5593.097
164,Okhla Vihar,15441,15:06:45,15:07:05,4,upward,7428.589
165,Jamia Millia Islamia,15441,15:09:32,15:09:52,5,upward,8372.665
166,Sukhdev Vihar,15441,15:12:25,15:12:45,6,upward,9604.107
167,Okhla NSIC,15441,15:15:03,15:15:23,7,upward,10754.323
131,Kalkaji Mandir,15441,15:17:20,15:17:40,8,upward,11547.502
182,Nehru Enclave,15441,15:19:16,15:19:36,9,upward,12378.613
183,Greater Kailash,15441,15:21:55,15:22:15,10,upward,13737.647
184,Chirag Delhi,15441,15:24:00,15:24:20,11,upward,14563.604
185,Panchsheel Park,15441,15:26:04,15:26:24,12,upward,15478.074
59,Hauz Khas,15441,15:28:53,15:29:13,13,upward,16891.973
81,Botanical Garden,15442,14:59:50,15:00:10,0,upward,0.0
161,Okhla Bird Sanctuary,15442,15:03:42,15:04:02,1,upward,2003.493
162,Kalindi Kunj,15442,15:06:37,15:06:57,2,upward,3589.032
163,Jasola Vihar Shaheen Bagh,15442,15:10:09,15:10:29,3,upward,5593.097
164,Okhla Vihar,15442,15:13:30,15:13:50,4,upward,7428.589
165,Jamia Millia Islamia,15442,15:16:17,15:16:37,5,upward,8372.665
166,Sukhdev Vihar,15442,15:19:10,15:19:30,6,upward,9604.107
167,Okhla NSIC,15442,15:21:48,15:22:08,7,upward,10754.323
131,Kalkaji Mandir,15442,15:24:05,15:24:25,8,upward,11547.502
182,Nehru Enclave,15442,15:26:01,15:26:21,9,upward,12378.613
183,Greater Kailash,15442,15:28:40,15:29:00,10,upward,13737.647
184,Chirag Delhi,15442,15:30:45,15:31:05,11,upward,14563.604
185,Panchsheel Park,15442,15:32:49,15:33:09,12,upward,15478.074
59,Hauz Khas,15442,15:35:38,15:35:58,13,upward,16891.973
81,Botanical Garden,15443,15:06:35,15:06:55,0,upward,0.0
161,Okhla Bird Sanctuary,15443,15:10:27,15:10:47,1,upward,2003.493
162,Kalindi Kunj,15443,15:13:22,15:13:42,2,upward,3589.032
163,Jasola Vihar Shaheen Bagh,15443,15:16:54,15:17:14,3,upward,5593.097
164,Okhla Vihar,15443,15:20:15,15:20:35,4,upward,7428.589
165,Jamia Millia Islamia,15443,15:23:02,15:23:22,5,upward,8372.665
166,Sukhdev Vihar,15443,15:25:55,15:26:15,6,upward,9604.107
167,Okhla NSIC,15443,15:28:33,15:28:53,7,upward,10754.323
131,Kalkaji Mandir,15443,15:30:50,15:31:10,8,upward,11547.502
182,Nehru Enclave,15443,15:32:46,15:33:06,9,upward,12378.613
183,Greater Kailash,15443,15:35:25,15:35:45,10,upward,13737.647
184,Chirag Delhi,15443,15:37:30,15:37:50,11,upward,14563.604
185,Panchsheel Park,15443,15:39:34,15:39:54,12,upward,15478.074
59,Hauz Khas,15443,15:42:23,15:42:43,13,upward,16891.973
81,Botanical Garden,15444,15:13:20,15:13:40,0,upward,0.0
161,Okhla Bird Sanctuary,15444,15:17:12,15:17:32,1,upward,2003.493
162,Kalindi Kunj,15444,15:20:07,15:20:27,2,upward,3589.032
163,Jasola Vihar Shaheen Bagh,15444,15:23:39,15:23:59,3,upward,5593.097
164,Okhla Vihar,15444,15:27:00,15:27:20,4,upward,7428.589
165,Jamia Millia Islamia,15444,15:29:47,15:30:07,5,upward,8372.665
166,Sukhdev Vihar,15444,15:32:40,15:33:00,6,upward,9604.107
167,Okhla NSIC,15444,15:35:18,15:35:38,7,upward,10754.323
131,Kalkaji Mandir,15444,15:37:35,15:37:55,8,upward,11547.502
182,Nehru Enclave,15444,15:39:31,15:39:51,9,upward,12378.613
183,Greater Kailash,15444,15:42:10,15:42:30,10,upward,13737.647
184,Chirag Delhi,15444,15:44:15,15:44:35,11,upward,14563.604
185,Panchsheel Park,15444,15:46:19,15:46:39,12,upward,15478.074
59,Hauz Khas,15444,15:49:08,15:49:28,13,upward,16891.973
81,Botanical Garden,15445,15:20:05,15:20:25,0,upward,0.0
161,Okhla Bird Sanctuary,15445,15:23:57,15:24:17,1,upward,2003.493
162,Kalindi Kunj,15445,15:26:52,15:27:12,2,upward,3589.032
163,Jasola Vihar Shaheen Bagh,15445,15:30:24,15:30:44,3,upward,5593.097
164,Okhla Vihar,15445,15:33:45,15:34:05,4,upward,7428.589
165,Jamia Millia Islamia,15445,15:36:32,15:36:52,5,upward,8372.665
166,Sukhdev Vihar,15445,15:39:25,15:39:45,6,upward,9604.107
167,Okhla NSIC,15445,15:42:03,15:42:23,7,upward,10754.323
131,Kalkaji Mandir,15445,15:44:20,15:44:40,8,upward,11547.502
182,Nehru Enclave,15445,15:46:16,15:46:36,9,upward,12378.613
183,Greater Kailash,15445,15:48:55,15:49:15,10,upward,13737.647
184,Chirag Delhi,15445,15:51:00,15:51:20,11,upward,14563.604
185,Panchsheel Park,15445,15:53:04,15:53:24,12,upward,15478.074
59,Hauz Khas,15445,15:55:53,15:56:13,13,upward,16891.973
81,Botanical Garden,15446,15:26:50,15:27:10,0,upward,0.0
161,Okhla Bird Sanctuary,15446,15:30:42,15:31:02,1,upward,2003.493
162,Kalindi Kunj,15446,15:33:37,15:33:57,2,upward,3589.032
163,Jasola Vihar Shaheen Bagh,15446,15:37:09,15:37:29,3,upward,5593.097
164,Okhla Vihar,15446,15:40:30,15:40:50,4,upward,7428.589
165,Jamia Millia Islamia,15446,15:43:17,15:43:37,5,upward,8372.665
166,Sukhdev Vihar,15446,15:46:10,15:46:30,6,upward,9604.107
167,Okhla NSIC,15446,15:48:48,15:49:08,7,upward,10754.323
131,Kalkaji Mandir,15446,15:51:05,15:51:25,8,upward,11547.502
182,Nehru Enclave,15446,15:53:01,15:53:21,9,upward,12378.613
183,Greater Kailash,15446,15:55:40,15:56:00,10,upward,13737.647
184,Chirag Delhi,15446,15:57:45,15:58:05,11,upward,14563.604
185,Panchsheel Park,15446,15:59:49,16:00:09,12,upward,15478.074
59,Hauz Khas,15446,16:02:38,16:02:58,13,upward,16891.973
81,Botanical Garden,15447,15:33:35,15:33:55,0,upward,0.0
161,Okhla Bird Sanctuary,15447,15:37:27,15:37:47,1,upward,2003.493
162,Kalindi Kunj,15447,15:40:22,15:40:42,2,upward,3589.032
163,Jasola Vihar Shaheen Bagh,15447,15:43:54,15:44:14,3,upward,5593.097
164,Okhla Vihar,15447,15:47:15,15:47:35,4,upward,7428.589
165,Jamia Millia Islamia,15447,15:50:02,15:50:22,5,upward,8372.665
166,Sukhdev Vihar,15447,15:52:55,15:53:15,6,upward,9604.107
167,Okhla NSIC,15447,15:55:33,15:55:53,7,upward,10754.323
131,Kalkaji Mandir,15447,15:57:50,15:58:10,8,upward,11547.502
182,Nehru Enclave,15447,15:59:46,16:00:06,9,upward,12378.613
183,Greater Kailash,15447,16:02:25,16:02:45,10,upward,13737.647
184,Chirag Delhi,15447,16:04:30,16:04:50,11,upward,14563.604
185,Panchsheel Park,15447,16:06:34,16:06:54,12,upward,15478.074
59,Hauz Khas,15447,16:09:23,16:09:43,13,upward,16891.973
81,Botanical Garden,15448,15:40:20,15:40:40,0,upward,0.0
161,Okhla Bird Sanctuary,15448,15:44:12,15:44:32,1,upward,2003.493
162,Kalindi Kunj,15448,15:47:07,15:47:27,2,upward,3589.032
163,Jasola Vihar Shaheen Bagh,15448,15:50:39,15:50:59,3,upward,5593.097
164,Okhla Vihar,15448,15:54:00,15:54:20,4,upward,7428.589
165,Jamia Millia Islamia,15448,15:56:47,15:57:07,5,upward,8372.665
166,Sukhdev Vihar,15448,15:59:40,16:00:00,6,upward,9604.107
167,Okhla NSIC,15448,16:02:18,16:02:38,7,upward,10754.323
131,Kalkaji Mandir,15448,16:04:35,16:04:55,8,upward,11547.502
182,Nehru Enclave,15448,16:06:31,16:06:51,9,upward,12378.613
183,Greater Kailash,15448,16:09:10,16:09:30,10,upward,13737.647
184,Chirag Delhi,15448,16:11:15,16:11:35,11,upward,14563.604
185,Panchsheel Park,15448,16:13:19,16:13:39,12,upward,15478.074
59,Hauz Khas,15448,16:16:08,16:16:28,13,upward,16891.973
81,Botanical Garden,15449,15:47:05,15:47:25,0,upward,0.0
161,Okhla Bird Sanctuary,15449,15:50:57,15:51:17,1,upward,2003.493
162,Kalindi Kunj,15449,15:53:52,15:54:12,2,upward,3589.032
163,Jasola Vihar Shaheen Bagh,15449,15:57:24,15:57:44,3,upward,5593.097
164,Okhla Vihar,15449,16:00:45,16:01:05,4,upward,7428.589
165,Jamia Millia Islamia,15449,16:03:32,16:03:52,5,upward,8372.665
166,Sukhdev Vihar,15449,16:06:25,16:06:45,6,upward,9604.107
167,Okhla NSIC,15449,16:09:03,16:09:23,7,upward,10754.323
131,Kalkaji Mandir,15449,16:11:20,16:11:40,8,upward,11547.502
182,Nehru Enclave,15449,16:13:16,16:13:36,9,upward,12378.613
183,Greater Kailash,15449,16:15:55,16:16:15,10,upward,13737.647
184,Chirag Delhi,15449,16:18:00,16:18:20,11,upward,14563.604
185,Panchsheel Park,15449,16:20:04,16:20:24,12,upward,15478.074
59,Hauz Khas,15449,16:22:53,16:23:13,13,upward,16891.973
81,Botanical Garden,15450,15:53:50,15:54:10,0,upward,0.0
161,Okhla Bird Sanctuary,15450,15:57:42,15:58:02,1,upward,2003.493
162,Kalindi Kunj,15450,16:00:37,16:00:57,2,upward,3589.032
163,Jasola Vihar Shaheen Bagh,15450,16:04:09,16:04:29,3,upward,5593.097
164,Okhla Vihar,15450,16:07:30,16:07:50,4,upward,7428.589
165,Jamia Millia Islamia,15450,16:10:17,16:10:37,5,upward,8372.665
166,Sukhdev Vihar,15450,16:13:10,16:13:30,6,upward,9604.107
167,Okhla NSIC,15450,16:15:48,16:16:08,7,upward,10754.323
131,Kalkaji Mandir,15450,16:18:05,16:18:25,8,upward,11547.502
182,Nehru Enclave,15450,16:20:01,16:20:21,9,upward,12378.613
183,Greater Kailash,15450,16:22:40,16:23:00,10,upward,13737.647
184,Chirag Delhi,15450,16:24:45,16:25:05,11,upward,14563.604
185,Panchsheel Park,15450,16:26:49,16:27:09,12,upward,15478.074
59,Hauz Khas,15450,16:29:38,16:29:58,13,upward,16891.973
81,Botanical Garden,15451,16:00:35,16:00:55,0,upward,0.0
161,Okhla Bird Sanctuary,15451,16:04:27,16:04:47,1,upward,2003.493
162,Kalindi Kunj,15451,16:07:22,16:07:42,2,upward,3589.032
163,Jasola Vihar Shaheen Bagh,15451,16:10:54,16:11:14,3,upward,5593.097
164,Okhla Vihar,15451,16:14:15,16:14:35,4,upward,7428.589
165,Jamia Millia Islamia,15451,16:17:02,16:17:22,5,upward,8372.665
166,Sukhdev Vihar,15451,16:19:55,16:20:15,6,upward,9604.107
167,Okhla NSIC,15451,16:22:33,16:22:53,7,upward,10754.323
131,Kalkaji Mandir,15451,16:24:50,16:25:10,8,upward,11547.502
182,Nehru Enclave,15451,16:26:46,16:27:06,9,upward,12378.613
183,Greater Kailash,15451,16:29:25,16:29:45,10,upward,13737.647
184,Chirag Delhi,15451,16:31:30,16:31:50,11,upward,14563.604
185,Panchsheel Park,15451,16:33:34,16:33:54,12,upward,15478.074
59,Hauz Khas,15451,16:36:23,16:36:43,13,upward,16891.973
81,Botanical Garden,15452,16:07:20,16:07:40,0,upward,0.0
161,Okhla Bird Sanctuary,15452,16:11:12,16:11:32,1,upward,2003.493
162,Kalindi Kunj,15452,16:14:07,16:14:27,2,upward,3589.032
163,Jasola Vihar Shaheen Bagh,15452,16:17:39,16:17:59,3,upward,5593.097
164,Okhla Vihar,15452,16:21:00,16:21:20,4,upward,7428.589
165,Jamia Millia Islamia,15452,16:23:47,16:24:07,5,upward,8372.665
166,Sukhdev Vihar,15452,16:26:40,16:27:00,6,upward,9604.107
167,Okhla NSIC,15452,16:29:18,16:29:38,7,upward,10754.323
131,Kalkaji Mandir,15452,16:31:35,16:31:55,8,upward,11547.502
182,Nehru Enclave,15452,16:33:31,16:33:51,9,upward,12378.613
183,Greater Kailash,15452,16:36:10,16:36:30,10,upward,13737.647
184,Chirag Delhi,15452,16:38:15,16:38:35,11,upward,14563.604
185,Panchsheel Park,15452,16:40:19,16:40:39,12,upward,15478.074
59,Hauz Khas,15452,16:43:08,16:43:28,13,upward,16891.973
81,Botanical Garden,15453,16:14:05,16:14:25,0,upward,0.0
161,Okhla Bird Sanctuary,15453,16:17:57,16:18:17,1,upward,2003.493
162,Kalindi Kunj,15453,16:20:52,16:21:12,2,upward,3589.032
163,Jasola Vihar Shaheen Bagh,15453,16:24:24,16:24:44,3,upward,5593.097
164,Okhla Vihar,15453,16:27:45,16:28:05,4,upward,7428.589
165,Jamia Millia Islamia,15453,16:30:32,16:30:52,5,upward,8372.665
166,Sukhdev Vihar,15453,16:33:25,16:33:45,6,upward,9604.107
167,Okhla NSIC,15453,16:36:03,16:36:23,7,upward,10754.323
131,Kalkaji Mandir,15453,16:38:20,16:38:40,8,upward,11547.502
182,Nehru Enclave,15453,16:40:16,16:40:36,9,upward,12378.613
183,Greater Kailash,15453,16:42:55,16:43:15,10,upward,13737.647
184,Chirag Delhi,15453,16:45:00,16:45:20,11,upward,14563.604
185,Panchsheel Park,15453,16:47:04,16:47:24,12,upward,15478.074
59,Hauz Khas,15453,16:49:53,16:50:13,13,upward,16891.973
81,Botanical Garden,15454,16:20:50,16:21:10,0,upward,0.0
161,Okhla Bird Sanctuary,15454,16:24:42,16:25:02,1,upward,2003.493
162,Kalindi Kunj,15454,16:27:37,16:27:57,2,upward,3589.032
163,Jasola Vihar Shaheen Bagh,15454,16:31:09,16:31:29,3,upward,5593.097
164,Okhla Vihar,15454,16:34:30,16:34:50,4,upward,7428.589
165,Jamia Millia Islamia,15454,16:37:17,16:37:37,5,upward,8372.665
166,Sukhdev Vihar,15454,16:40:10,16:40:30,6,upward,9604.107
167,Okhla NSIC,15454,16:42:48,16:43:08,7,upward,10754.323
131,Kalkaji Mandir,15454,16:45:05,16:45:25,8,upward,11547.502
182,Nehru Enclave,15454,16:47:01,16:47:21,9,upward,12378.613
183,Greater Kailash,15454,16:49:40,16:50:00,10,upward,13737.647
184,Chirag Delhi,15454,16:51:45,16:52:05,11,upward,14563.604
185,Panchsheel Park,15454,16:53:49,16:54:09,12,upward,15478.074
59,Hauz Khas,15454,16:56:38,16:56:58,13,upward,16891.973
81,Botanical Garden,15455,16:27:35,16:27:55,0,upward,0.0
161,Okhla Bird Sanctuary,15455,16:31:27,16:31:47,1,upward,2003.493
162,Kalindi Kunj,15455,16:34:22,16:34:42,2,upward,3589.032
163,Jasola Vihar Shaheen Bagh,15455,16:37:54,16:38:14,3,upward,5593.097
164,Okhla Vihar,15455,16:41:15,16:41:35,4,upward,7428.589
165,Jamia Millia Islamia,15455,16:44:02,16:44:22,5,upward,8372.665
166,Sukhdev Vihar,15455,16:46:55,16:47:15,6,upward,9604.107
167,Okhla NSIC,15455,16:49:33,16:49:53,7,upward,10754.323
131,Kalkaji Mandir,15455,16:51:50,16:52:10,8,upward,11547.502
182,Nehru Enclave,15455,16:53:46,16:54:06,9,upward,12378.613
183,Greater Kailash,15455,16:56:25,16:56:45,10,upward,13737.647
184,Chirag Delhi,15455,16:58:30,16:58:50,11,upward,14563.604
185,Panchsheel Park,15455,17:00:34,17:00:54,12,upward,15478.074
59,Hauz Khas,15455,17:03:23,17:03:43,13,upward,16891.973
81,Botanical Garden,15456,16:34:20,16:34:40,0,upward,0.0
161,Okhla Bird Sanctuary,15456,16:38:12,16:38:32,1,upward,2003.493
162,Kalindi Kunj,15456,16:41:07,16:41:27,2,upward,3589.032
163,Jasola Vihar Shaheen Bagh,15456,16:44:39,16:44:59,3,upward,5593.097
164,Okhla Vihar,15456,16:48:00,16:48:20,4,upward,7428.589
165,Jamia Millia Islamia,15456,16:50:47,16:51:07,5,upward,8372.665
166,Sukhdev Vihar,15456,16:53:40,16:54:00,6,upward,9604.107
167,Okhla NSIC,15456,16:56:18,16:56:38,7,upward,10754.323
131,Kalkaji Mandir,15456,16:58:35,16:58:55,8,upward,11547.502
182,Nehru Enclave,15456,17:00:31,17:00:51,9,upward,12378.613
183,Greater Kailash,15456,17:03:10,17:03:30,10,upward,13737.647
184,Chirag Delhi,15456,17:05:15,17:05:35,11,upward,14563.604
185,Panchsheel Park,15456,17:07:19,17:07:39,12,upward,15478.074
59,Hauz Khas,15456,17:10:08,17:10:28,13,upward,16891.973
81,Botanical Garden,15457,16:41:05,16:41:25,0,upward,0.0
161,Okhla Bird Sanctuary,15457,16:44:57,16:45:17,1,upward,2003.493
162,Kalindi Kunj,15457,16:47:52,16:48:12,2,upward,3589.032
163,Jasola Vihar Shaheen Bagh,15457,16:51:24,16:51:44,3,upward,5593.097
164,Okhla Vihar,15457,16:54:45,16:55:05,4,upward,7428.589
165,Jamia Millia Islamia,15457,16:57:32,16:57:52,5,upward,8372.665
166,Sukhdev Vihar,15457,17:00:25,17:00:45,6,upward,9604.107
167,Okhla NSIC,15457,17:03:03,17:03:23,7,upward,10754.323
131,Kalkaji Mandir,15457,17:05:20,17:05:40,8,upward,11547.502
182,Nehru Enclave,15457,17:07:16,17:07:36,9,upward,12378.613
183,Greater Kailash,15457,17:09:55,17:10:15,10,upward,13737.647
184,Chirag Delhi,15457,17:12:00,17:12:20,11,upward,14563.604
185,Panchsheel Park,15457,17:14:04,17:14:24,12,upward,15478.074
59,Hauz Khas,15457,17:16:53,17:17:13,13,upward,16891.973
81,Botanical Garden,15458,16:47:50,16:48:10,0,upward,0.0
161,Okhla Bird Sanctuary,15458,16:51:42,16:52:02,1,upward,2003.493
162,Kalindi Kunj,15458,16:54:37,16:54:57,2,upward,3589.032
163,Jasola Vihar Shaheen Bagh,15458,16:58:09,16:58:29,3,upward,5593.097
164,Okhla Vihar,15458,17:01:30,17:01:50,4,upward,7428.589
165,Jamia Millia Islamia,15458,17:04:17,17:04:37,5,upward,8372.665
166,Sukhdev Vihar,15458,17:07:10,17:07:30,6,upward,9604.107
167,Okhla NSIC,15458,17:09:48,17:10:08,7,upward,10754.323
131,Kalkaji Mandir,15458,17:12:05,17:12:25,8,upward,11547.502
182,Nehru Enclave,15458,17:14:01,17:14:21,9,upward,12378.613
183,Greater Kailash,15458,17:16:40,17:17:00,10,upward,13737.647
184,Chirag Delhi,15458,17:18:45,17:19:05,11,upward,14563.604
185,Panchsheel Park,15458,17:20:49,17:21:09,12,upward,15478.074
59,Hauz Khas,15458,17:23:38,17:23:58,13,upward,16891.973
81,Botanical Garden,15459,16:54:35,16:54:55,0,upward,0.0
161,Okhla Bird Sanctuary,15459,16:58:27,16:58:47,1,upward,2003.493
162,Kalindi Kunj,15459,17:01:22,17:01:42,2,upward,3589.032
163,Jasola Vihar Shaheen Bagh,15459,17:04:54,17:05:14,3,upward,5593.097
164,Okhla Vihar,15459,17:08:15,17:08:35,4,upward,7428.589
165,Jamia Millia Islamia,15459,17:11:02,17:11:22,5,upward,8372.665
166,Sukhdev Vihar,15459,17:13:55,17:14:15,6,upward,9604.107
167,Okhla NSIC,15459,17:16:33,17:16:53,7,upward,10754.323
131,Kalkaji Mandir,15459,17:18:50,17:19:10,8,upward,11547.502
182,Nehru Enclave,15459,17:20:46,17:21:06,9,upward,12378.613
183,Greater Kailash,15459,17:23:25,17:23:45,10,upward,13737.647
184,Chirag Delhi,15459,17:25:30,17:25:50,11,upward,14563.604
185,Panchsheel Park,15459,17:27:34,17:27:54,12,upward,15478.074
59,Hauz Khas,15459,17:30:23,17:30:43,13,upward,16891.973
81,Botanical Garden,15460,17:01:20,17:01:40,0,upward,0.0
161,Okhla Bird Sanctuary,15460,17:05:12,17:05:32,1,upward,2003.493
162,Kalindi Kunj,15460,17:08:07,17:08:27,2,upward,3589.032
163,Jasola Vihar Shaheen Bagh,15460,17:11:39,17:11:59,3,upward,5593.097
164,Okhla Vihar,15460,17:15:00,17:15:20,4,upward,7428.589
165,Jamia Millia Islamia,15460,17:17:47,17:18:07,5,upward,8372.665
166,Sukhdev Vihar,15460,17:20:40,17:21:00,6,upward,9604.107
167,Okhla NSIC,15460,17:23:18,17:23:38,7,upward,10754.323
131,Kalkaji Mandir,15460,17:25:35,17:25:55,8,upward,11547.502
182,Nehru Enclave,15460,17:27:31,17:27:51,9,upward,12378.613
183,Greater Kailash,15460,17:30:10,17:30:30,10,upward,13737.647
184,Chirag Delhi,15460,17:32:15,17:32:35,11,upward,14563.604
185,Panchsheel Park,15460,17:34:19,17:34:39,12,upward,15478.074
59,Hauz Khas,15460,17:37:08,17:37:28,13,upward,16891.973
81,Botanical Garden,15461,17:06:30,17:06:50,0,upward,0.0
161,Okhla Bird Sanctuary,15461,17:10:22,17:10:42,1,upward,2003.493
162,Kalindi Kunj,15461,17:13:17,17:13:37,2,upward,3589.032
163,Jasola Vihar Shaheen Bagh,15461,17:16:49,17:17:09,3,upward,5593.097
164,Okhla Vihar,15461,17:20:10,17:20:30,4,upward,7428.589
165,Jamia Millia Islamia,15461,17:22:57,17:23:17,5,upward,8372.665
166,Sukhdev Vihar,15461,17:25:50,17:26:10,6,upward,9604.107
167,Okhla NSIC,15461,17:28:28,17:28:48,7,upward,10754.323
131,Kalkaji Mandir,15461,17:30:45,17:31:05,8,upward,11547.502
182,Nehru Enclave,15461,17:32:41,17:33:01,9,upward,12378.613
183,Greater Kailash,15461,17:35:20,17:35:40,10,upward,13737.647
184,Chirag Delhi,15461,17:37:25,17:37:45,11,upward,14563.604
185,Panchsheel Park,15461,17:39:29,17:39:49,12,upward,15478.074
59,Hauz Khas,15461,17:42:18,17:42:38,13,upward,16891.973
81,Botanical Garden,15462,17:11:40,17:12:00,0,upward,0.0
161,Okhla Bird Sanctuary,15462,17:15:32,17:15:52,1,upward,2003.493
162,Kalindi Kunj,15462,17:18:27,17:18:47,2,upward,3589.032
163,Jasola Vihar Shaheen Bagh,15462,17:21:59,17:22:19,3,upward,5593.097
164,Okhla Vihar,15462,17:25:20,17:25:40,4,upward,7428.589
165,Jamia Millia Islamia,15462,17:28:07,17:28:27,5,upward,8372.665
166,Sukhdev Vihar,15462,17:31:00,17:31:20,6,upward,9604.107
167,Okhla NSIC,15462,17:33:38,17:33:58,7,upward,10754.323
131,Kalkaji Mandir,15462,17:35:55,17:36:15,8,upward,11547.502
182,Nehru Enclave,15462,17:37:51,17:38:11,9,upward,12378.613
183,Greater Kailash,15462,17:40:30,17:40:50,10,upward,13737.647
184,Chirag Delhi,15462,17:42:35,17:42:55,11,upward,14563.604
185,Panchsheel Park,15462,17:44:39,17:44:59,12,upward,15478.074
59,Hauz Khas,15462,17:47:28,17:47:48,13,upward,16891.973
81,Botanical Garden,15463,17:16:50,17:17:10,0,upward,0.0
161,Okhla Bird Sanctuary,15463,17:20:42,17:21:02,1,upward,2003.493
162,Kalindi Kunj,15463,17:23:37,17:23:57,2,upward,3589.032
163,Jasola Vihar Shaheen Bagh,15463,17:27:09,17:27:29,3,upward,5593.097
164,Okhla Vihar,15463,17:30:30,17:30:50,4,upward,7428.589
165,Jamia Millia Islamia,15463,17:33:17,17:33:37,5,upward,8372.665
166,Sukhdev Vihar,15463,17:36:10,17:36:30,6,upward,9604.107
167,Okhla NSIC,15463,17:38:48,17:39:08,7,upward,10754.323
131,Kalkaji Mandir,15463,17:41:05,17:41:25,8,upward,11547.502
182,Nehru Enclave,15463,17:43:01,17:43:21,9,upward,12378.613
183,Greater Kailash,15463,17:45:40,17:46:00,10,upward,13737.647
184,Chirag Delhi,15463,17:47:45,17:48:05,11,upward,14563.604
185,Panchsheel Park,15463,17:49:49,17:50:09,12,upward,15478.074
59,Hauz Khas,15463,17:52:38,17:52:58,13,upward,16891.973
81,Botanical Garden,15464,17:22:00,17:22:20,0,upward,0.0
161,Okhla Bird Sanctuary,15464,17:25:52,17:26:12,1,upward,2003.493
162,Kalindi Kunj,15464,17:28:47,17:29:07,2,upward,3589.032
163,Jasola Vihar Shaheen Bagh,15464,17:32:19,17:32:39,3,upward,5593.097
164,Okhla Vihar,15464,17:35:40,17:36:00,4,upward,7428.589
165,Jamia Millia Islamia,15464,17:38:27,17:38:47,5,upward,8372.665
166,Sukhdev Vihar,15464,17:41:20,17:41:40,6,upward,9604.107
167,Okhla NSIC,15464,17:43:58,17:44:18,7,upward,10754.323
131,Kalkaji Mandir,15464,17:46:15,17:46:35,8,upward,11547.502
182,Nehru Enclave,15464,17:48:11,17:48:31,9,upward,12378.613
183,Greater Kailash,15464,17:50:50,17:51:10,10,upward,13737.647
184,Chirag Delhi,15464,17:52:55,17:53:15,11,upward,14563.604
185,Panchsheel Park,15464,17:54:59,17:55:19,12,upward,15478.074
59,Hauz Khas,15464,17:57:48,17:58:08,13,upward,16891.973
81,Botanical Garden,15465,17:27:10,17:27:30,0,upward,0.0
161,Okhla Bird Sanctuary,15465,17:31:02,17:31:22,1,upward,2003.493
162,Kalindi Kunj,15465,17:33:57,17:34:17,2,upward,3589.032
163,Jasola Vihar Shaheen Bagh,15465,17:37:29,17:37:49,3,upward,5593.097
164,Okhla Vihar,15465,17:40:50,17:41:10,4,upward,7428.589
165,Jamia Millia Islamia,15465,17:43:37,17:43:57,5,upward,8372.665
166,Sukhdev Vihar,15465,17:46:30,17:46:50,6,upward,9604.107
167,Okhla NSIC,15465,17:49:08,17:49:28,7,upward,10754.323
131,Kalkaji Mandir,15465,17:51:25,17:51:45,8,upward,11547.502
182,Nehru Enclave,15465,17:53:21,17:53:41,9,upward,12378.613
183,Greater Kailash,15465,17:56:00,17:56:20,10,upward,13737.647
184,Chirag Delhi,15465,17:58:05,17:58:25,11,upward,14563.604
185,Panchsheel Park,15465,18:00:09,18:00:29,12,upward,15478.074
59,Hauz Khas,15465,18:02:58,18:03:18,13,upward,16891.973
81,Botanical Garden,15466,17:32:20,17:32:40,0,upward,0.0
161,Okhla Bird Sanctuary,15466,17:36:12,17:36:32,1,upward,2003.493
162,Kalindi Kunj,15466,17:39:07,17:39:27,2,upward,3589.032
163,Jasola Vihar Shaheen Bagh,15466,17:42:39,17:42:59,3,upward,5593.097
164,Okhla Vihar,15466,17:46:00,17:46:20,4,upward,7428.589
165,Jamia Millia Islamia,15466,17:48:47,17:49:07,5,upward,8372.665
166,Sukhdev Vihar,15466,17:51:40,17:52:00,6,upward,9604.107
167,Okhla NSIC,15466,17:54:18,17:54:38,7,upward,10754.323
131,Kalkaji Mandir,15466,17:56:35,17:56:55,8,upward,11547.502
182,Nehru Enclave,15466,17:58:31,17:58:51,9,upward,12378.613
183,Greater Kailash,15466,18:01:10,18:01:30,10,upward,13737.647
184,Chirag Delhi,15466,18:03:15,18:03:35,11,upward,14563.604
185,Panchsheel Park,15466,18:05:19,18:05:39,12,upward,15478.074
59,Hauz Khas,15466,18:08:08,18:08:28,13,upward,16891.973
81,Botanical Garden,15467,17:37:30,17:37:50,0,upward,0.0
161,Okhla Bird Sanctuary,15467,17:41:22,17:41:42,1,upward,2003.493
162,Kalindi Kunj,15467,17:44:17,17:44:37,2,upward,3589.032
163,Jasola Vihar Shaheen Bagh,15467,17:47:49,17:48:09,3,upward,5593.097
164,Okhla Vihar,15467,17:51:10,17:51:30,4,upward,7428.589
165,Jamia Millia Islamia,15467,17:53:57,17:54:17,5,upward,8372.665
166,Sukhdev Vihar,15467,17:56:50,17:57:10,6,upward,9604.107
167,Okhla NSIC,15467,17:59:28,17:59:48,7,upward,10754.323
131,Kalkaji Mandir,15467,18:01:45,18:02:05,8,upward,11547.502
182,Nehru Enclave,15467,18:03:41,18:04:01,9,upward,12378.613
183,Greater Kailash,15467,18:06:20,18:06:40,10,upward,13737.647
184,Chirag Delhi,15467,18:08:25,18:08:45,11,upward,14563.604
185,Panchsheel Park,15467,18:10:29,18:10:49,12,upward,15478.074
59,Hauz Khas,15467,18:13:18,18:13:38,13,upward,16891.973
81,Botanical Garden,15468,17:42:40,17:43:00,0,upward,0.0
161,Okhla Bird Sanctuary,15468,17:46:32,17:46:52,1,upward,2003.493
162,Kalindi Kunj,15468,17:49:27,17:49:47,2,upward,3589.032
163,Jasola Vihar Shaheen Bagh,15468,17:52:59,17:53:19,3,upward,5593.097
164,Okhla Vihar,15468,17:56:20,17:56:40,4,upward,7428.589
165,Jamia Millia Islamia,15468,17:59:07,17:59:27,5,upward,8372.665
166,Sukhdev Vihar,15468,18:02:00,18:02:20,6,upward,9604.107
167,Okhla NSIC,15468,18:04:38,18:04:58,7,upward,10754.323
131,Kalkaji Mandir,15468,18:06:55,18:07:15,8,upward,11547.502
182,Nehru Enclave,15468,18:08:51,18:09:11,9,upward,12378.613
183,Greater Kailash,15468,18:11:30,18:11:50,10,upward,13737.647
184,Chirag Delhi,15468,18:13:35,18:13:55,11,upward,14563.604
185,Panchsheel Park,15468,18:15:39,18:15:59,12,upward,15478.074
59,Hauz Khas,15468,18:18:28,18:18:48,13,upward,16891.973
81,Botanical Garden,15469,17:47:50,17:48:10,0,upward,0.0
161,Okhla Bird Sanctuary,15469,17:51:42,17:52:02,1,upward,2003.493
162,Kalindi Kunj,15469,17:54:37,17:54:57,2,upward,3589.032
163,Jasola Vihar Shaheen Bagh,15469,17:58:09,17:58:29,3,upward,5593.097
164,Okhla Vihar,15469,18:01:30,18:01:50,4,upward,7428.589
165,Jamia Millia Islamia,15469,18:04:17,18:04:37,5,upward,8372.665
166,Sukhdev Vihar,15469,18:07:10,18:07:30,6,upward,9604.107
167,Okhla NSIC,15469,18:09:48,18:10:08,7,upward,10754.323
131,Kalkaji Mandir,15469,18:12:05,18:12:25,8,upward,11547.502
182,Nehru Enclave,15469,18:14:01,18:14:21,9,upward,12378.613
183,Greater Kailash,15469,18:16:40,18:17:00,10,upward,13737.647
184,Chirag Delhi,15469,18:18:45,18:19:05,11,upward,14563.604
185,Panchsheel Park,15469,18:20:49,18:21:09,12,upward,15478.074
59,Hauz Khas,15469,18:23:38,18:23:58,13,upward,16891.973
81,Botanical Garden,15470,17:53:00,17:53:20,0,upward,0.0
161,Okhla Bird Sanctuary,15470,17:56:52,17:57:12,1,upward,2003.493
162,Kalindi Kunj,15470,17:59:47,18:00:07,2,upward,3589.032
163,Jasola Vihar Shaheen Bagh,15470,18:03:19,18:03:39,3,upward,5593.097
164,Okhla Vihar,15470,18:06:40,18:07:00,4,upward,7428.589
165,Jamia Millia Islamia,15470,18:09:27,18:09:47,5,upward,8372.665
166,Sukhdev Vihar,15470,18:12:20,18:12:40,6,upward,9604.107
167,Okhla NSIC,15470,18:14:58,18:15:18,7,upward,10754.323
131,Kalkaji Mandir,15470,18:17:15,18:17:35,8,upward,11547.502
182,Nehru Enclave,15470,18:19:11,18:19:31,9,upward,12378.613
183,Greater Kailash,15470,18:21:50,18:22:10,10,upward,13737.647
184,Chirag Delhi,15470,18:23:55,18:24:15,11,upward,14563.604
185,Panchsheel Park,15470,18:25:59,18:26:19,12,upward,15478.074
59,Hauz Khas,15470,18:28:48,18:29:08,13,upward,16891.973
81,Botanical Garden,15471,17:58:10,17:58:30,0,upward,0.0
161,Okhla Bird Sanctuary,15471,18:02:02,18:02:22,1,upward,2003.493
162,Kalindi Kunj,15471,18:04:57,18:05:17,2,upward,3589.032
163,Jasola Vihar Shaheen Bagh,15471,18:08:29,18:08:49,3,upward,5593.097
164,Okhla Vihar,15471,18:11:50,18:12:10,4,upward,7428.589
165,Jamia Millia Islamia,15471,18:14:37,18:14:57,5,upward,8372.665
166,Sukhdev Vihar,15471,18:17:30,18:17:50,6,upward,9604.107
167,Okhla NSIC,15471,18:20:08,18:20:28,7,upward,10754.323
131,Kalkaji Mandir,15471,18:22:25,18:22:45,8,upward,11547.502
182,Nehru Enclave,15471,18:24:21,18:24:41,9,upward,12378.613
183,Greater Kailash,15471,18:27:00,18:27:20,10,upward,13737.647
184,Chirag Delhi,15471,18:29:05,18:29:25,11,upward,14563.604
185,Panchsheel Park,15471,18:31:09,18:31:29,12,upward,15478.074
59,Hauz Khas,15471,18:33:58,18:34:18,13,upward,16891.973
81,Botanical Garden,15472,18:03:20,18:03:40,0,upward,0.0
161,Okhla Bird Sanctuary,15472,18:07:12,18:07:32,1,upward,2003.493
162,Kalindi Kunj,15472,18:10:07,18:10:27,2,upward,3589.032
163,Jasola Vihar Shaheen Bagh,15472,18:13:39,18:13:59,3,upward,5593.097
164,Okhla Vihar,15472,18:17:00,18:17:20,4,upward,7428.589
165,Jamia Millia Islamia,15472,18:19:47,18:20:07,5,upward,8372.665
166,Sukhdev Vihar,15472,18:22:40,18:23:00,6,upward,9604.107
167,Okhla NSIC,15472,18:25:18,18:25:38,7,upward,10754.323
131,Kalkaji Mandir,15472,18:27:35,18:27:55,8,upward,11547.502
182,Nehru Enclave,15472,18:29:31,18:29:51,9,upward,12378.613
183,Greater Kailash,15472,18:32:10,18:32:30,10,upward,13737.647
184,Chirag Delhi,15472,18:34:15,18:34:35,11,upward,14563.604
185,Panchsheel Park,15472,18:36:19,18:36:39,12,upward,15478.074
59,Hauz Khas,15472,18:39:08,18:39:28,13,upward,16891.973
81,Botanical Garden,15473,18:08:30,18:08:50,0,upward,0.0
161,Okhla Bird Sanctuary,15473,18:12:22,18:12:42,1,upward,2003.493
162,Kalindi Kunj,15473,18:15:17,18:15:37,2,upward,3589.032
163,Jasola Vihar Shaheen Bagh,15473,18:18:49,18:19:09,3,upward,5593.097
164,Okhla Vihar,15473,18:22:10,18:22:30,4,upward,7428.589
165,Jamia Millia Islamia,15473,18:24:57,18:25:17,5,upward,8372.665
166,Sukhdev Vihar,15473,18:27:50,18:28:10,6,upward,9604.107
167,Okhla NSIC,15473,18:30:28,18:30:48,7,upward,10754.323
131,Kalkaji Mandir,15473,18:32:45,18:33:05,8,upward,11547.502
182,Nehru Enclave,15473,18:34:41,18:35:01,9,upward,12378.613
183,Greater Kailash,15473,18:37:20,18:37:40,10,upward,13737.647
184,Chirag Delhi,15473,18:39:25,18:39:45,11,upward,14563.604
185,Panchsheel Park,15473,18:41:29,18:41:49,12,upward,15478.074
59,Hauz Khas,15473,18:44:18,18:44:38,13,upward,16891.973
81,Botanical Garden,15474,18:13:40,18:14:00,0,upward,0.0
161,Okhla Bird Sanctuary,15474,18:17:32,18:17:52,1,upward,2003.493
162,Kalindi Kunj,15474,18:20:27,18:20:47,2,upward,3589.032
163,Jasola Vihar Shaheen Bagh,15474,18:23:59,18:24:19,3,upward,5593.097
164,Okhla Vihar,15474,18:27:20,18:27:40,4,upward,7428.589
165,Jamia Millia Islamia,15474,18:30:07,18:30:27,5,upward,8372.665
166,Sukhdev Vihar,15474,18:33:00,18:33:20,6,upward,9604.107
167,Okhla NSIC,15474,18:35:38,18:35:58,7,upward,10754.323
131,Kalkaji Mandir,15474,18:37:55,18:38:15,8,upward,11547.502
182,Nehru Enclave,15474,18:39:51,18:40:11,9,upward,12378.613
183,Greater Kailash,15474,18:42:30,18:42:50,10,upward,13737.647
184,Chirag Delhi,15474,18:44:35,18:44:55,11,upward,14563.604
185,Panchsheel Park,15474,18:46:39,18:46:59,12,upward,15478.074
59,Hauz Khas,15474,18:49:28,18:49:48,13,upward,16891.973
81,Botanical Garden,15475,18:18:50,18:19:10,0,upward,0.0
161,Okhla Bird Sanctuary,15475,18:22:42,18:23:02,1,upward,2003.493
162,Kalindi Kunj,15475,18:25:37,18:25:57,2,upward,3589.032
163,Jasola Vihar Shaheen Bagh,15475,18:29:09,18:29:29,3,upward,5593.097
164,Okhla Vihar,15475,18:32:30,18:32:50,4,upward,7428.589
165,Jamia Millia Islamia,15475,18:35:17,18:35:37,5,upward,8372.665
166,Sukhdev Vihar,15475,18:38:10,18:38:30,6,upward,9604.107
167,Okhla NSIC,15475,18:40:48,18:41:08,7,upward,10754.323
131,Kalkaji Mandir,15475,18:43:05,18:43:25,8,upward,11547.502
182,Nehru Enclave,15475,18:45:01,18:45:21,9,upward,12378.613
183,Greater Kailash,15475,18:47:40,18:48:00,10,upward,13737.647
184,Chirag Delhi,15475,18:49:45,18:50:05,11,upward,14563.604
185,Panchsheel Park,15475,18:51:49,18:52:09,12,upward,15478.074
59,Hauz Khas,15475,18:54:38,18:54:58,13,upward,16891.973
81,Botanical Garden,15476,18:24:00,18:24:20,0,upward,0.0
161,Okhla Bird Sanctuary,15476,18:27:52,18:28:12,1,upward,2003.493
162,Kalindi Kunj,15476,18:30:47,18:31:07,2,upward,3589.032
163,Jasola Vihar Shaheen Bagh,15476,18:34:19,18:34:39,3,upward,5593.097
164,Okhla Vihar,15476,18:37:40,18:38:00,4,upward,7428.589
165,Jamia Millia Islamia,15476,18:40:27,18:40:47,5,upward,8372.665
166,Sukhdev Vihar,15476,18:43:20,18:43:40,6,upward,9604.107
167,Okhla NSIC,15476,18:45:58,18:46:18,7,upward,10754.323
131,Kalkaji Mandir,15476,18:48:15,18:48:35,8,upward,11547.502
182,Nehru Enclave,15476,18:50:11,18:50:31,9,upward,12378.613
183,Greater Kailash,15476,18:52:50,18:53:10,10,upward,13737.647
184,Chirag Delhi,15476,18:54:55,18:55:15,11,upward,14563.604
185,Panchsheel Park,15476,18:56:59,18:57:19,12,upward,15478.074
59,Hauz Khas,15476,18:59:48,19:00:08,13,upward,16891.973
81,Botanical Garden,15477,18:29:10,18:29:30,0,upward,0.0
161,Okhla Bird Sanctuary,15477,18:33:02,18:33:22,1,upward,2003.493
162,Kalindi Kunj,15477,18:35:57,18:36:17,2,upward,3589.032
163,Jasola Vihar Shaheen Bagh,15477,18:39:29,18:39:49,3,upward,5593.097
164,Okhla Vihar,15477,18:42:50,18:43:10,4,upward,7428.589
165,Jamia Millia Islamia,15477,18:45:37,18:45:57,5,upward,8372.665
166,Sukhdev Vihar,15477,18:48:30,18:48:50,6,upward,9604.107
167,Okhla NSIC,15477,18:51:08,18:51:28,7,upward,10754.323
131,Kalkaji Mandir,15477,18:53:25,18:53:45,8,upward,11547.502
182,Nehru Enclave,15477,18:55:21,18:55:41,9,upward,12378.613
183,Greater Kailash,15477,18:58:00,18:58:20,10,upward,13737.647
184,Chirag Delhi,15477,19:00:05,19:00:25,11,upward,14563.604
185,Panchsheel Park,15477,19:02:09,19:02:29,12,upward,15478.074
59,Hauz Khas,15477,19:04:58,19:05:18,13,upward,16891.973
81,Botanical Garden,15478,18:34:20,18:34:40,0,upward,0.0
161,Okhla Bird Sanctuary,15478,18:38:12,18:38:32,1,upward,2003.493
162,Kalindi Kunj,15478,18:41:07,18:41:27,2,upward,3589.032
163,Jasola Vihar Shaheen Bagh,15478,18:44:39,18:44:59,3,upward,5593.097
164,Okhla Vihar,15478,18:48:00,18:48:20,4,upward,7428.589
165,Jamia Millia Islamia,15478,18:50:47,18:51:07,5,upward,8372.665
166,Sukhdev Vihar,15478,18:53:40,18:54:00,6,upward,9604.107
167,Okhla NSIC,15478,18:56:18,18:56:38,7,upward,10754.323
131,Kalkaji Mandir,15478,18:58:35,18:58:55,8,upward,11547.502
182,Nehru Enclave,15478,19:00:31,19:00:51,9,upward,12378.613
183,Greater Kailash,15478,19:03:10,19:03:30,10,upward,13737.647
184,Chirag Delhi,15478,19:05:15,19:05:35,11,upward,14563.604
185,Panchsheel Park,15478,19:07:19,19:07:39,12,upward,15478.074
59,Hauz Khas,15478,19:10:08,19:10:28,13,upward,16891.973
81,Botanical Garden,15479,18:39:30,18:39:50,0,upward,0.0
161,Okhla Bird Sanctuary,15479,18:43:22,18:43:42,1,upward,2003.493
162,Kalindi Kunj,15479,18:46:17,18:46:37,2,upward,3589.032
163,Jasola Vihar Shaheen Bagh,15479,18:49:49,18:50:09,3,upward,5593.097
164,Okhla Vihar,15479,18:53:10,18:53:30,4,upward,7428.589
165,Jamia Millia Islamia,15479,18:55:57,18:56:17,5,upward,8372.665
166,Sukhdev Vihar,15479,18:58:50,18:59:10,6,upward,9604.107
167,Okhla NSIC,15479,19:01:28,19:01:48,7,upward,10754.323
131,Kalkaji Mandir,15479,19:03:45,19:04:05,8,upward,11547.502
182,Nehru Enclave,15479,19:05:41,19:06:01,9,upward,12378.613
183,Greater Kailash,15479,19:08:20,19:08:40,10,upward,13737.647
184,Chirag Delhi,15479,19:10:25,19:10:45,11,upward,14563.604
185,Panchsheel Park,15479,19:12:29,19:12:49,12,upward,15478.074
59,Hauz Khas,15479,19:15:18,19:15:38,13,upward,16891.973
81,Botanical Garden,15480,18:44:40,18:45:00,0,upward,0.0
161,Okhla Bird Sanctuary,15480,18:48:32,18:48:52,1,upward,2003.493
162,Kalindi Kunj,15480,18:51:27,18:51:47,2,upward,3589.032
163,Jasola Vihar Shaheen Bagh,15480,18:54:59,18:55:19,3,upward,5593.097
164,Okhla Vihar,15480,18:58:20,18:58:40,4,upward,7428.589
165,Jamia Millia Islamia,15480,19:01:07,19:01:27,5,upward,8372.665
166,Sukhdev Vihar,15480,19:04:00,19:04:20,6,upward,9604.107
167,Okhla NSIC,15480,19:06:38,19:06:58,7,upward,10754.323
131,Kalkaji Mandir,15480,19:08:55,19:09:15,8,upward,11547.502
182,Nehru Enclave,15480,19:10:51,19:11:11,9,upward,12378.613
183,Greater Kailash,15480,19:13:30,19:13:50,10,upward,13737.647
184,Chirag Delhi,15480,19:15:35,19:15:55,11,upward,14563.604
185,Panchsheel Park,15480,19:17:39,19:17:59,12,upward,15478.074
59,Hauz Khas,15480,19:20:28,19:20:48,13,upward,16891.973
81,Botanical Garden,15481,18:49:50,18:50:10,0,upward,0.0
161,Okhla Bird Sanctuary,15481,18:53:42,18:54:02,1,upward,2003.493
162,Kalindi Kunj,15481,18:56:37,18:56:57,2,upward,3589.032
163,Jasola Vihar Shaheen Bagh,15481,19:00:09,19:00:29,3,upward,5593.097
164,Okhla Vihar,15481,19:03:30,19:03:50,4,upward,7428.589
165,Jamia Millia Islamia,15481,19:06:17,19:06:37,5,upward,8372.665
166,Sukhdev Vihar,15481,19:09:10,19:09:30,6,upward,9604.107
167,Okhla NSIC,15481,19:11:48,19:12:08,7,upward,10754.323
131,Kalkaji Mandir,15481,19:14:05,19:14:25,8,upward,11547.502
182,Nehru Enclave,15481,19:16:01,19:16:21,9,upward,12378.613
183,Greater Kailash,15481,19:18:40,19:19:00,10,upward,13737.647
184,Chirag Delhi,15481,19:20:45,19:21:05,11,upward,14563.604
185,Panchsheel Park,15481,19:22:49,19:23:09,12,upward,15478.074
59,Hauz Khas,15481,19:25:38,19:25:58,13,upward,16891.973
81,Botanical Garden,15482,18:55:00,18:55:20,0,upward,0.0
161,Okhla Bird Sanctuary,15482,18:58:52,18:59:12,1,upward,2003.493
162,Kalindi Kunj,15482,19:01:47,19:02:07,2,upward,3589.032
163,Jasola Vihar Shaheen Bagh,15482,19:05:19,19:05:39,3,upward,5593.097
164,Okhla Vihar,15482,19:08:40,19:09:00,4,upward,7428.589
165,Jamia Millia Islamia,15482,19:11:27,19:11:47,5,upward,8372.665
166,Sukhdev Vihar,15482,19:14:20,19:14:40,6,upward,9604.107
167,Okhla NSIC,15482,19:16:58,19:17:18,7,upward,10754.323
131,Kalkaji Mandir,15482,19:19:15,19:19:35,8,upward,11547.502
182,Nehru Enclave,15482,19:21:11,19:21:31,9,upward,12378.613
183,Greater Kailash,15482,19:23:50,19:24:10,10,upward,13737.647
184,Chirag Delhi,15482,19:25:55,19:26:15,11,upward,14563.604
185,Panchsheel Park,15482,19:27:59,19:28:19,12,upward,15478.074
59,Hauz Khas,15482,19:30:48,19:31:08,13,upward,16891.973
81,Botanical Garden,15483,19:00:10,19:00:30,0,upward,0.0
161,Okhla Bird Sanctuary,15483,19:04:02,19:04:22,1,upward,2003.493
162,Kalindi Kunj,15483,19:06:57,19:07:17,2,upward,3589.032
163,Jasola Vihar Shaheen Bagh,15483,19:10:29,19:10:49,3,upward,5593.097
164,Okhla Vihar,15483,19:13:50,19:14:10,4,upward,7428.589
165,Jamia Millia Islamia,15483,19:16:37,19:16:57,5,upward,8372.665
166,Sukhdev Vihar,15483,19:19:30,19:19:50,6,upward,9604.107
167,Okhla NSIC,15483,19:22:08,19:22:28,7,upward,10754.323
131,Kalkaji Mandir,15483,19:24:25,19:24:45,8,upward,11547.502
182,Nehru Enclave,15483,19:26:21,19:26:41,9,upward,12378.613
183,Greater Kailash,15483,19:29:00,19:29:20,10,upward,13737.647
184,Chirag Delhi,15483,19:31:05,19:31:25,11,upward,14563.604
185,Panchsheel Park,15483,19:33:09,19:33:29,12,upward,15478.074
59,Hauz Khas,15483,19:35:58,19:36:18,13,upward,16891.973
81,Botanical Garden,15484,19:05:20,19:05:40,0,upward,0.0
161,Okhla Bird Sanctuary,15484,19:09:12,19:09:32,1,upward,2003.493
162,Kalindi Kunj,15484,19:12:07,19:12:27,2,upward,3589.032
163,Jasola Vihar Shaheen Bagh,15484,19:15:39,19:15:59,3,upward,5593.097
164,Okhla Vihar,15484,19:19:00,19:19:20,4,upward,7428.589
165,Jamia Millia Islamia,15484,19:21:47,19:22:07,5,upward,8372.665
166,Sukhdev Vihar,15484,19:24:40,19:25:00,6,upward,9604.107
167,Okhla NSIC,15484,19:27:18,19:27:38,7,upward,10754.323
131,Kalkaji Mandir,15484,19:29:35,19:29:55,8,upward,11547.502
182,Nehru Enclave,15484,19:31:31,19:31:51,9,upward,12378.613
183,Greater Kailash,15484,19:34:10,19:34:30,10,upward,13737.647
184,Chirag Delhi,15484,19:36:15,19:36:35,11,upward,14563.604
185,Panchsheel Park,15484,19:38:19,19:38:39,12,upward,15478.074
59,Hauz Khas,15484,19:41:08,19:41:28,13,upward,16891.973
81,Botanical Garden,15485,19:10:30,19:10:50,0,upward,0.0
161,Okhla Bird Sanctuary,15485,19:14:22,19:14:42,1,upward,2003.493
162,Kalindi Kunj,15485,19:17:17,19:17:37,2,upward,3589.032
163,Jasola Vihar Shaheen Bagh,15485,19:20:49,19:21:09,3,upward,5593.097
164,Okhla Vihar,15485,19:24:10,19:24:30,4,upward,7428.589
165,Jamia Millia Islamia,15485,19:26:57,19:27:17,5,upward,8372.665
166,Sukhdev Vihar,15485,19:29:50,19:30:10,6,upward,9604.107
167,Okhla NSIC,15485,19:32:28,19:32:48,7,upward,10754.323
131,Kalkaji Mandir,15485,19:34:45,19:35:05,8,upward,11547.502
182,Nehru Enclave,15485,19:36:41,19:37:01,9,upward,12378.613
183,Greater Kailash,15485,19:39:20,19:39:40,10,upward,13737.647
184,Chirag Delhi,15485,19:41:25,19:41:45,11,upward,14563.604
185,Panchsheel Park,15485,19:43:29,19:43:49,12,upward,15478.074
59,Hauz Khas,15485,19:46:18,19:46:38,13,upward,16891.973
81,Botanical Garden,15486,19:15:40,19:16:00,0,upward,0.0
161,Okhla Bird Sanctuary,15486,19:19:32,19:19:52,1,upward,2003.493
162,Kalindi Kunj,15486,19:22:27,19:22:47,2,upward,3589.032
163,Jasola Vihar Shaheen Bagh,15486,19:25:59,19:26:19,3,upward,5593.097
164,Okhla Vihar,15486,19:29:20,19:29:40,4,upward,7428.589
165,Jamia Millia Islamia,15486,19:32:07,19:32:27,5,upward,8372.665
166,Sukhdev Vihar,15486,19:35:00,19:35:20,6,upward,9604.107
167,Okhla NSIC,15486,19:37:38,19:37:58,7,upward,10754.323
131,Kalkaji Mandir,15486,19:39:55,19:40:15,8,upward,11547.502
182,Nehru Enclave,15486,19:41:51,19:42:11,9,upward,12378.613
183,Greater Kailash,15486,19:44:30,19:44:50,10,upward,13737.647
184,Chirag Delhi,15486,19:46:35,19:46:55,11,upward,14563.604
185,Panchsheel Park,15486,19:48:39,19:48:59,12,upward,15478.074
59,Hauz Khas,15486,19:51:28,19:51:48,13,upward,16891.973
81,Botanical Garden,15487,19:20:50,19:21:10,0,upward,0.0
161,Okhla Bird Sanctuary,15487,19:24:42,19:25:02,1,upward,2003.493
162,Kalindi Kunj,15487,19:27:37,19:27:57,2,upward,3589.032
163,Jasola Vihar Shaheen Bagh,15487,19:31:09,19:31:29,3,upward,5593.097
164,Okhla Vihar,15487,19:34:30,19:34:50,4,upward,7428.589
165,Jamia Millia Islamia,15487,19:37:17,19:37:37,5,upward,8372.665
166,Sukhdev Vihar,15487,19:40:10,19:40:30,6,upward,9604.107
167,Okhla NSIC,15487,19:42:48,19:43:08,7,upward,10754.323
131,Kalkaji Mandir,15487,19:45:05,19:45:25,8,upward,11547.502
182,Nehru Enclave,15487,19:47:01,19:47:21,9,upward,12378.613
183,Greater Kailash,15487,19:49:40,19:50:00,10,upward,13737.647
184,Chirag Delhi,15487,19:51:45,19:52:05,11,upward,14563.604
185,Panchsheel Park,15487,19:53:49,19:54:09,12,upward,15478.074
59,Hauz Khas,15487,19:56:38,19:56:58,13,upward,16891.973
81,Botanical Garden,15488,19:26:00,19:26:20,0,upward,0.0
161,Okhla Bird Sanctuary,15488,19:29:52,19:30:12,1,upward,2003.493
162,Kalindi Kunj,15488,19:32:47,19:33:07,2,upward,3589.032
163,Jasola Vihar Shaheen Bagh,15488,19:36:19,19:36:39,3,upward,5593.097
164,Okhla Vihar,15488,19:39:40,19:40:00,4,upward,7428.589
165,Jamia Millia Islamia,15488,19:42:27,19:42:47,5,upward,8372.665
166,Sukhdev Vihar,15488,19:45:20,19:45:40,6,upward,9604.107
167,Okhla NSIC,15488,19:47:58,19:48:18,7,upward,10754.323
131,Kalkaji Mandir,15488,19:50:15,19:50:35,8,upward,11547.502
182,Nehru Enclave,15488,19:52:11,19:52:31,9,upward,12378.613
183,Greater Kailash,15488,19:54:50,19:55:10,10,upward,13737.647
184,Chirag Delhi,15488,19:56:55,19:57:15,11,upward,14563.604
185,Panchsheel Park,15488,19:58:59,19:59:19,12,upward,15478.074
59,Hauz Khas,15488,20:01:48,20:02:08,13,upward,16891.973
81,Botanical Garden,15489,19:31:10,19:31:30,0,upward,0.0
161,Okhla Bird Sanctuary,15489,19:35:02,19:35:22,1,upward,2003.493
162,Kalindi Kunj,15489,19:37:57,19:38:17,2,upward,3589.032
163,Jasola Vihar Shaheen Bagh,15489,19:41:29,19:41:49,3,upward,5593.097
164,Okhla Vihar,15489,19:44:50,19:45:10,4,upward,7428.589
165,Jamia Millia Islamia,15489,19:47:37,19:47:57,5,upward,8372.665
166,Sukhdev Vihar,15489,19:50:30,19:50:50,6,upward,9604.107
167,Okhla NSIC,15489,19:53:08,19:53:28,7,upward,10754.323
131,Kalkaji Mandir,15489,19:55:25,19:55:45,8,upward,11547.502
182,Nehru Enclave,15489,19:57:21,19:57:41,9,upward,12378.613
183,Greater Kailash,15489,20:00:00,20:00:20,10,upward,13737.647
184,Chirag Delhi,15489,20:02:05,20:02:25,11,upward,14563.604
185,Panchsheel Park,15489,20:04:09,20:04:29,12,upward,15478.074
59,Hauz Khas,15489,20:06:58,20:07:18,13,upward,16891.973
81,Botanical Garden,15490,19:36:20,19:36:40,0,upward,0.0
161,Okhla Bird Sanctuary,15490,19:40:12,19:40:32,1,upward,2003.493
162,Kalindi Kunj,15490,19:43:07,19:43:27,2,upward,3589.032
163,Jasola Vihar Shaheen Bagh,15490,19:46:39,19:46:59,3,upward,5593.097
164,Okhla Vihar,15490,19:50:00,19:50:20,4,upward,7428.589
165,Jamia Millia Islamia,15490,19:52:47,19:53:07,5,upward,8372.665
166,Sukhdev Vihar,15490,19:55:40,19:56:00,6,upward,9604.107
167,Okhla NSIC,15490,19:58:18,19:58:38,7,upward,10754.323
131,Kalkaji Mandir,15490,20:00:35,20:00:55,8,upward,11547.502
182,Nehru Enclave,15490,20:02:31,20:02:51,9,upward,12378.613
183,Greater Kailash,15490,20:05:10,20:05:30,10,upward,13737.647
184,Chirag Delhi,15490,20:07:15,20:07:35,11,upward,14563.604
185,Panchsheel Park,15490,20:09:19,20:09:39,12,upward,15478.074
59,Hauz Khas,15490,20:12:08,20:12:28,13,upward,16891.973
81,Botanical Garden,15491,19:41:30,19:41:50,0,upward,0.0
161,Okhla Bird Sanctuary,15491,19:45:22,19:45:42,1,upward,2003.493
162,Kalindi Kunj,15491,19:48:17,19:48:37,2,upward,3589.032
163,Jasola Vihar Shaheen Bagh,15491,19:51:49,19:52:09,3,upward,5593.097
164,Okhla Vihar,15491,19:55:10,19:55:30,4,upward,7428.589
165,Jamia Millia Islamia,15491,19:57:57,19:58:17,5,upward,8372.665
166,Sukhdev Vihar,15491,20:00:50,20:01:10,6,upward,9604.107
167,Okhla NSIC,15491,20:03:28,20:03:48,7,upward,10754.323
131,Kalkaji Mandir,15491,20:05:45,20:06:05,8,upward,11547.502
182,Nehru Enclave,15491,20:07:41,20:08:01,9,upward,12378.613
183,Greater Kailash,15491,20:10:20,20:10:40,10,upward,13737.647
184,Chirag Delhi,15491,20:12:25,20:12:45,11,upward,14563.604
185,Panchsheel Park,15491,20:14:29,20:14:49,12,upward,15478.074
59,Hauz Khas,15491,20:17:18,20:17:38,13,upward,16891.973
81,Botanical Garden,15492,19:46:40,19:47:00,0,upward,0.0
161,Okhla Bird Sanctuary,15492,19:50:32,19:50:52,1,upward,2003.493
162,Kalindi Kunj,15492,19:53:27,19:53:47,2,upward,3589.032
163,Jasola Vihar Shaheen Bagh,15492,19:56:59,19:57:19,3,upward,5593.097
164,Okhla Vihar,15492,20:00:20,20:00:40,4,upward,7428.589
165,Jamia Millia Islamia,15492,20:03:07,20:03:27,5,upward,8372.665
166,Sukhdev Vihar,15492,20:06:00,20:06:20,6,upward,9604.107
167,Okhla NSIC,15492,20:08:38,20:08:58,7,upward,10754.323
131,Kalkaji Mandir,15492,20:10:55,20:11:15,8,upward,11547.502
182,Nehru Enclave,15492,20:12:51,20:13:11,9,upward,12378.613
183,Greater Kailash,15492,20:15:30,20:15:50,10,upward,13737.647
184,Chirag Delhi,15492,20:17:35,20:17:55,11,upward,14563.604
185,Panchsheel Park,15492,20:19:39,20:19:59,12,upward,15478.074
59,Hauz Khas,15492,20:22:28,20:22:48,13,upward,16891.973
81,Botanical Garden,15493,19:51:50,19:52:10,0,upward,0.0
161,Okhla Bird Sanctuary,15493,19:55:42,19:56:02,1,upward,2003.493
162,Kalindi Kunj,15493,19:58:37,19:58:57,2,upward,3589.032
163,Jasola Vihar Shaheen Bagh,15493,20:02:09,20:02:29,3,upward,5593.097
164,Okhla Vihar,15493,20:05:30,20:05:50,4,upward,7428.589
165,Jamia Millia Islamia,15493,20:08:17,20:08:37,5,upward,8372.665
166,Sukhdev Vihar,15493,20:11:10,20:11:30,6,upward,9604.107
167,Okhla NSIC,15493,20:13:48,20:14:08,7,upward,10754.323
131,Kalkaji Mandir,15493,20:16:05,20:16:25,8,upward,11547.502
182,Nehru Enclave,15493,20:18:01,20:18:21,9,upward,12378.613
183,Greater Kailash,15493,20:20:40,20:21:00,10,upward,13737.647
184,Chirag Delhi,15493,20:22:45,20:23:05,11,upward,14563.604
185,Panchsheel Park,15493,20:24:49,20:25:09,12,upward,15478.074
59,Hauz Khas,15493,20:27:38,20:27:58,13,upward,16891.973
81,Botanical Garden,15494,19:57:00,19:57:20,0,upward,0.0
161,Okhla Bird Sanctuary,15494,20:00:52,20:01:12,1,upward,2003.493
162,Kalindi Kunj,15494,20:03:47,20:04:07,2,upward,3589.032
163,Jasola Vihar Shaheen Bagh,15494,20:07:19,20:07:39,3,upward,5593.097
164,Okhla Vihar,15494,20:10:40,20:11:00,4,upward,7428.589
165,Jamia Millia Islamia,15494,20:13:27,20:13:47,5,upward,8372.665
166,Sukhdev Vihar,15494,20:16:20,20:16:40,6,upward,9604.107
167,Okhla NSIC,15494,20:18:58,20:19:18,7,upward,10754.323
131,Kalkaji Mandir,15494,20:21:15,20:21:35,8,upward,11547.502
182,Nehru Enclave,15494,20:23:11,20:23:31,9,upward,12378.613
183,Greater Kailash,15494,20:25:50,20:26:10,10,upward,13737.647
184,Chirag Delhi,15494,20:27:55,20:28:15,11,upward,14563.604
185,Panchsheel Park,15494,20:29:59,20:30:19,12,upward,15478.074
59,Hauz Khas,15494,20:32:48,20:33:08,13,upward,16891.973
81,Botanical Garden,15495,20:02:10,20:02:30,0,upward,0.0
161,Okhla Bird Sanctuary,15495,20:06:02,20:06:22,1,upward,2003.493
162,Kalindi Kunj,15495,20:08:57,20:09:17,2,upward,3589.032
163,Jasola Vihar Shaheen Bagh,15495,20:12:29,20:12:49,3,upward,5593.097
164,Okhla Vihar,15495,20:15:50,20:16:10,4,upward,7428.589
165,Jamia Millia Islamia,15495,20:18:37,20:18:57,5,upward,8372.665
166,Sukhdev Vihar,15495,20:21:30,20:21:50,6,upward,9604.107
167,Okhla NSIC,15495,20:24:08,20:24:28,7,upward,10754.323
131,Kalkaji Mandir,15495,20:26:25,20:26:45,8,upward,11547.502
182,Nehru Enclave,15495,20:28:21,20:28:41,9,upward,12378.613
183,Greater Kailash,15495,20:31:00,20:31:20,10,upward,13737.647
184,Chirag Delhi,15495,20:33:05,20:33:25,11,upward,14563.604
185,Panchsheel Park,15495,20:35:09,20:35:29,12,upward,15478.074
59,Hauz Khas,15495,20:37:58,20:38:18,13,upward,16891.973
81,Botanical Garden,15496,20:07:20,20:07:40,0,upward,0.0
161,Okhla Bird Sanctuary,15496,20:11:12,20:11:32,1,upward,2003.493
162,Kalindi Kunj,15496,20:14:07,20:14:27,2,upward,3589.032
163,Jasola Vihar Shaheen Bagh,15496,20:17:39,20:17:59,3,upward,5593.097
164,Okhla Vihar,15496,20:21:00,20:21:20,4,upward,7428.589
165,Jamia Millia Islamia,15496,20:23:47,20:24:07,5,upward,8372.665
166,Sukhdev Vihar,15496,20:26:40,20:27:00,6,upward,9604.107
167,Okhla NSIC,15496,20:29:18,20:29:38,7,upward,10754.323
131,Kalkaji Mandir,15496,20:31:35,20:31:55,8,upward,11547.502
182,Nehru Enclave,15496,20:33:31,20:33:51,9,upward,12378.613
183,Greater Kailash,15496,20:36:10,20:36:30,10,upward,13737.647
184,Chirag Delhi,15496,20:38:15,20:38:35,11,upward,14563.604
185,Panchsheel Park,15496,20:40:19,20:40:39,12,upward,15478.074
59,Hauz Khas,15496,20:43:08,20:43:28,13,upward,16891.973
81,Botanical Garden,15497,20:12:30,20:12:50,0,upward,0.0
161,Okhla Bird Sanctuary,15497,20:16:22,20:16:42,1,upward,2003.493
162,Kalindi Kunj,15497,20:19:17,20:19:37,2,upward,3589.032
163,Jasola Vihar Shaheen Bagh,15497,20:22:49,20:23:09,3,upward,5593.097
164,Okhla Vihar,15497,20:26:10,20:26:30,4,upward,7428.589
165,Jamia Millia Islamia,15497,20:28:57,20:29:17,5,upward,8372.665
166,Sukhdev Vihar,15497,20:31:50,20:32:10,6,upward,9604.107
167,Okhla NSIC,15497,20:34:28,20:34:48,7,upward,10754.323
131,Kalkaji Mandir,15497,20:36:45,20:37:05,8,upward,11547.502
182,Nehru Enclave,15497,20:38:41,20:39:01,9,upward,12378.613
183,Greater Kailash,15497,20:41:20,20:41:40,10,upward,13737.647
184,Chirag Delhi,15497,20:43:25,20:43:45,11,upward,14563.604
185,Panchsheel Park,15497,20:45:29,20:45:49,12,upward,15478.074
59,Hauz Khas,15497,20:48:18,20:48:38,13,upward,16891.973
81,Botanical Garden,15498,20:17:40,20:18:00,0,upward,0.0
161,Okhla Bird Sanctuary,15498,20:21:32,20:21:52,1,upward,2003.493
162,Kalindi Kunj,15498,20:24:27,20:24:47,2,upward,3589.032
163,Jasola Vihar Shaheen Bagh,15498,20:27:59,20:28:19,3,upward,5593.097
164,Okhla Vihar,15498,20:31:20,20:31:40,4,upward,7428.589
165,Jamia Millia Islamia,15498,20:34:07,20:34:27,5,upward,8372.665
166,Sukhdev Vihar,15498,20:37:00,20:37:20,6,upward,9604.107
167,Okhla NSIC,15498,20:39:38,20:39:58,7,upward,10754.323
131,Kalkaji Mandir,15498,20:41:55,20:42:15,8,upward,11547.502
182,Nehru Enclave,15498,20:43:51,20:44:11,9,upward,12378.613
183,Greater Kailash,15498,20:46:30,20:46:50,10,upward,13737.647
184,Chirag Delhi,15498,20:48:35,20:48:55,11,upward,14563.604
185,Panchsheel Park,15498,20:50:39,20:50:59,12,upward,15478.074
59,Hauz Khas,15498,20:53:28,20:53:48,13,upward,16891.973
81,Botanical Garden,15499,20:22:50,20:23:10,0,upward,0.0
161,Okhla Bird Sanctuary,15499,20:26:42,20:27:02,1,upward,2003.493
162,Kalindi Kunj,15499,20:29:37,20:29:57,2,upward,3589.032
163,Jasola Vihar Shaheen Bagh,15499,20:33:09,20:33:29,3,upward,5593.097
164,Okhla Vihar,15499,20:36:30,20:36:50,4,upward,7428.589
165,Jamia Millia Islamia,15499,20:39:17,20:39:37,5,upward,8372.665
166,Sukhdev Vihar,15499,20:42:10,20:42:30,6,upward,9604.107
167,Okhla NSIC,15499,20:44:48,20:45:08,7,upward,10754.323
131,Kalkaji Mandir,15499,20:47:05,20:47:25,8,upward,11547.502
182,Nehru Enclave,15499,20:49:01,20:49:21,9,upward,12378.613
183,Greater Kailash,15499,20:51:40,20:52:00,10,upward,13737.647
184,Chirag Delhi,15499,20:53:45,20:54:05,11,upward,14563.604
185,Panchsheel Park,15499,20:55:49,20:56:09,12,upward,15478.074
59,Hauz Khas,15499,20:58:38,20:58:58,13,upward,16891.973
81,Botanical Garden,15500,20:28:00,20:28:20,0,upward,0.0
161,Okhla Bird Sanctuary,15500,20:31:52,20:32:12,1,upward,2003.493
162,Kalindi Kunj,15500,20:34:47,20:35:07,2,upward,3589.032
163,Jasola Vihar Shaheen Bagh,15500,20:38:19,20:38:39,3,upward,5593.097
164,Okhla Vihar,15500,20:41:40,20:42:00,4,upward,7428.589
165,Jamia Millia Islamia,15500,20:44:27,20:44:47,5,upward,8372.665
166,Sukhdev Vihar,15500,20:47:20,20:47:40,6,upward,9604.107
167,Okhla NSIC,15500,20:49:58,20:50:18,7,upward,10754.323
131,Kalkaji Mandir,15500,20:52:15,20:52:35,8,upward,11547.502
182,Nehru Enclave,15500,20:54:11,20:54:31,9,upward,12378.613
183,Greater Kailash,15500,20:56:50,20:57:10,10,upward,13737.647
184,Chirag Delhi,15500,20:58:55,20:59:15,11,upward,14563.604
185,Panchsheel Park,15500,21:00:59,21:01:19,12,upward,15478.074
59,Hauz Khas,15500,21:03:48,21:04:08,13,upward,16891.973
81,Botanical Garden,15501,20:33:10,20:33:30,0,upward,0.0
161,Okhla Bird Sanctuary,15501,20:37:02,20:37:22,1,upward,2003.493
162,Kalindi Kunj,15501,20:39:57,20:40:17,2,upward,3589.032
163,Jasola Vihar Shaheen Bagh,15501,20:43:29,20:43:49,3,upward,5593.097
164,Okhla Vihar,15501,20:46:50,20:47:10,4,upward,7428.589
165,Jamia Millia Islamia,15501,20:49:37,20:49:57,5,upward,8372.665
166,Sukhdev Vihar,15501,20:52:30,20:52:50,6,upward,9604.107
167,Okhla NSIC,15501,20:55:08,20:55:28,7,upward,10754.323
131,Kalkaji Mandir,15501,20:57:25,20:57:45,8,upward,11547.502
182,Nehru Enclave,15501,20:59:21,20:59:41,9,upward,12378.613
183,Greater Kailash,15501,21:02:00,21:02:20,10,upward,13737.647
184,Chirag Delhi,15501,21:04:05,21:04:25,11,upward,14563.604
185,Panchsheel Park,15501,21:06:09,21:06:29,12,upward,15478.074
59,Hauz Khas,15501,21:08:58,21:09:18,13,upward,16891.973
81,Botanical Garden,15502,20:38:20,20:38:40,0,upward,0.0
161,Okhla Bird Sanctuary,15502,20:42:12,20:42:32,1,upward,2003.493
162,Kalindi Kunj,15502,20:45:07,20:45:27,2,upward,3589.032
163,Jasola Vihar Shaheen Bagh,15502,20:48:39,20:48:59,3,upward,5593.097
164,Okhla Vihar,15502,20:52:00,20:52:20,4,upward,7428.589
165,Jamia Millia Islamia,15502,20:54:47,20:55:07,5,upward,8372.665
166,Sukhdev Vihar,15502,20:57:40,20:58:00,6,upward,9604.107
167,Okhla NSIC,15502,21:00:18,21:00:38,7,upward,10754.323
131,Kalkaji Mandir,15502,21:02:35,21:02:55,8,upward,11547.502
182,Nehru Enclave,15502,21:04:31,21:04:51,9,upward,12378.613
183,Greater Kailash,15502,21:07:10,21:07:30,10,upward,13737.647
184,Chirag Delhi,15502,21:09:15,21:09:35,11,upward,14563.604
185,Panchsheel Park,15502,21:11:19,21:11:39,12,upward,15478.074
59,Hauz Khas,15502,21:14:08,21:14:28,13,upward,16891.973
81,Botanical Garden,15503,20:43:30,20:43:50,0,upward,0.0
161,Okhla Bird Sanctuary,15503,20:47:22,20:47:42,1,upward,2003.493
162,Kalindi Kunj,15503,20:50:17,20:50:37,2,upward,3589.032
163,Jasola Vihar Shaheen Bagh,15503,20:53:49,20:54:09,3,upward,5593.097
164,Okhla Vihar,15503,20:57:10,20:57:30,4,upward,7428.589
165,Jamia Millia Islamia,15503,20:59:57,21:00:17,5,upward,8372.665
166,Sukhdev Vihar,15503,21:02:50,21:03:10,6,upward,9604.107
167,Okhla NSIC,15503,21:05:28,21:05:48,7,upward,10754.323
131,Kalkaji Mandir,15503,21:07:45,21:08:05,8,upward,11547.502
182,Nehru Enclave,15503,21:09:41,21:10:01,9,upward,12378.613
183,Greater Kailash,15503,21:12:20,21:12:40,10,upward,13737.647
184,Chirag Delhi,15503,21:14:25,21:14:45,11,upward,14563.604
185,Panchsheel Park,15503,21:16:29,21:16:49,12,upward,15478.074
59,Hauz Khas,15503,21:19:18,21:19:38,13,upward,16891.973
81,Botanical Garden,15504,20:48:40,20:49:00,0,upward,0.0
161,Okhla Bird Sanctuary,15504,20:52:32,20:52:52,1,upward,2003.493
162,Kalindi Kunj,15504,20:55:27,20:55:47,2,upward,3589.032
163,Jasola Vihar Shaheen Bagh,15504,20:58:59,20:59:19,3,upward,5593.097
164,Okhla Vihar,15504,21:02:20,21:02:40,4,upward,7428.589
165,Jamia Millia Islamia,15504,21:05:07,21:05:27,5,upward,8372.665
166,Sukhdev Vihar,15504,21:08:00,21:08:20,6,upward,9604.107
167,Okhla NSIC,15504,21:10:38,21:10:58,7,upward,10754.323
131,Kalkaji Mandir,15504,21:12:55,21:13:15,8,upward,11547.502
182,Nehru Enclave,15504,21:14:51,21:15:11,9,upward,12378.613
183,Greater Kailash,15504,21:17:30,21:17:50,10,upward,13737.647
184,Chirag Delhi,15504,21:19:35,21:19:55,11,upward,14563.604
185,Panchsheel Park,15504,21:21:39,21:21:59,12,upward,15478.074
59,Hauz Khas,15504,21:24:28,21:24:48,13,upward,16891.973
81,Botanical Garden,15505,20:53:50,20:54:10,0,upward,0.0
161,Okhla Bird Sanctuary,15505,20:57:42,20:58:02,1,upward,2003.493
162,Kalindi Kunj,15505,21:00:37,21:00:57,2,upward,3589.032
163,Jasola Vihar Shaheen Bagh,15505,21:04:09,21:04:29,3,upward,5593.097
164,Okhla Vihar,15505,21:07:30,21:07:50,4,upward,7428.589
165,Jamia Millia Islamia,15505,21:10:17,21:10:37,5,upward,8372.665
166,Sukhdev Vihar,15505,21:13:10,21:13:30,6,upward,9604.107
167,Okhla NSIC,15505,21:15:48,21:16:08,7,upward,10754.323
131,Kalkaji Mandir,15505,21:18:05,21:18:25,8,upward,11547.502
182,Nehru Enclave,15505,21:20:01,21:20:21,9,upward,12378.613
183,Greater Kailash,15505,21:22:40,21:23:00,10,upward,13737.647
184,Chirag Delhi,15505,21:24:45,21:25:05,11,upward,14563.604
185,Panchsheel Park,15505,21:26:49,21:27:09,12,upward,15478.074
59,Hauz Khas,15505,21:29:38,21:29:58,13,upward,16891.973
81,Botanical Garden,15506,20:59:00,20:59:20,0,upward,0.0
161,Okhla Bird Sanctuary,15506,21:02:52,21:03:12,1,upward,2003.493
162,Kalindi Kunj,15506,21:05:47,21:06:07,2,upward,3589.032
163,Jasola Vihar Shaheen Bagh,15506,21:09:19,21:09:39,3,upward,5593.097
164,Okhla Vihar,15506,21:12:40,21:13:00,4,upward,7428.589
165,Jamia Millia Islamia,15506,21:15:27,21:15:47,5,upward,8372.665
166,Sukhdev Vihar,15506,21:18:20,21:18:40,6,upward,9604.107
167,Okhla NSIC,15506,21:20:58,21:21:18,7,upward,10754.323
131,Kalkaji Mandir,15506,21:23:15,21:23:35,8,upward,11547.502
182,Nehru Enclave,15506,21:25:11,21:25:31,9,upward,12378.613
183,Greater Kailash,15506,21:27:50,21:28:10,10,upward,13737.647
184,Chirag Delhi,15506,21:29:55,21:30:15,11,upward,14563.604
185,Panchsheel Park,15506,21:31:59,21:32:19,12,upward,15478.074
59,Hauz Khas,15506,21:34:48,21:35:08,13,upward,16891.973
81,Botanical Garden,15507,21:04:10,21:04:30,0,upward,0.0
161,Okhla Bird Sanctuary,15507,21:08:02,21:08:22,1,upward,2003.493
162,Kalindi Kunj,15507,21:10:57,21:11:17,2,upward,3589.032
163,Jasola Vihar Shaheen Bagh,15507,21:14:29,21:14:49,3,upward,5593.097
164,Okhla Vihar,15507,21:17:50,21:18:10,4,upward,7428.589
165,Jamia Millia Islamia,15507,21:20:37,21:20:57,5,upward,8372.665
166,Sukhdev Vihar,15507,21:23:30,21:23:50,6,upward,9604.107
167,Okhla NSIC,15507,21:26:08,21:26:28,7,upward,10754.323
131,Kalkaji Mandir,15507,21:28:25,21:28:45,8,upward,11547.502
182,Nehru Enclave,15507,21:30:21,21:30:41,9,upward,12378.613
183,Greater Kailash,15507,21:33:00,21:33:20,10,upward,13737.647
184,Chirag Delhi,15507,21:35:05,21:35:25,11,upward,14563.604
185,Panchsheel Park,15507,21:37:09,21:37:29,12,upward,15478.074
59,Hauz Khas,15507,21:39:58,21:40:18,13,upward,16891.973
81,Botanical Garden,15508,21:10:55,21:11:15,0,upward,0.0
161,Okhla Bird Sanctuary,15508,21:14:47,21:15:07,1,upward,2003.493
162,Kalindi Kunj,15508,21:17:42,21:18:02,2,upward,3589.032
163,Jasola Vihar Shaheen Bagh,15508,21:21:14,21:21:34,3,upward,5593.097
164,Okhla Vihar,15508,21:24:35,21:24:55,4,upward,7428.589
165,Jamia Millia Islamia,15508,21:27:22,21:27:42,5,upward,8372.665
166,Sukhdev Vihar,15508,21:30:15,21:30:35,6,upward,9604.107
167,Okhla NSIC,15508,21:32:53,21:33:13,7,upward,10754.323
131,Kalkaji Mandir,15508,21:35:10,21:35:30,8,upward,11547.502
182,Nehru Enclave,15508,21:37:06,21:37:26,9,upward,12378.613
183,Greater Kailash,15508,21:39:45,21:40:05,10,upward,13737.647
184,Chirag Delhi,15508,21:41:50,21:42:10,11,upward,14563.604
185,Panchsheel Park,15508,21:43:54,21:44:14,12,upward,15478.074
59,Hauz Khas,15508,21:46:43,21:47:03,13,upward,16891.973
81,Botanical Garden,15509,21:17:40,21:18:00,0,upward,0.0
161,Okhla Bird Sanctuary,15509,21:21:32,21:21:52,1,upward,2003.493
162,Kalindi Kunj,15509,21:24:27,21:24:47,2,upward,3589.032
163,Jasola Vihar Shaheen Bagh,15509,21:27:59,21:28:19,3,upward,5593.097
164,Okhla Vihar,15509,21:31:20,21:31:40,4,upward,7428.589
165,Jamia Millia Islamia,15509,21:34:07,21:34:27,5,upward,8372.665
166,Sukhdev Vihar,15509,21:37:00,21:37:20,6,upward,9604.107
167,Okhla NSIC,15509,21:39:38,21:39:58,7,upward,10754.323
131,Kalkaji Mandir,15509,21:41:55,21:42:15,8,upward,11547.502
182,Nehru Enclave,15509,21:43:51,21:44:11,9,upward,12378.613
183,Greater Kailash,15509,21:46:30,21:46:50,10,upward,13737.647
184,Chirag Delhi,15509,21:48:35,21:48:55,11,upward,14563.604
185,Panchsheel Park,15509,21:50:39,21:50:59,12,upward,15478.074
59,Hauz Khas,15509,21:53:28,21:53:48,13,upward,16891.973
81,Botanical Garden,15510,21:24:25,21:24:45,0,upward,0.0
161,Okhla Bird Sanctuary,15510,21:28:17,21:28:37,1,upward,2003.493
162,Kalindi Kunj,15510,21:31:12,21:31:32,2,upward,3589.032
163,Jasola Vihar Shaheen Bagh,15510,21:34:44,21:35:04,3,upward,5593.097
164,Okhla Vihar,15510,21:38:05,21:38:25,4,upward,7428.589
165,Jamia Millia Islamia,15510,21:40:52,21:41:12,5,upward,8372.665
166,Sukhdev Vihar,15510,21:43:45,21:44:05,6,upward,9604.107
167,Okhla NSIC,15510,21:46:23,21:46:43,7,upward,10754.323
131,Kalkaji Mandir,15510,21:48:40,21:49:00,8,upward,11547.502
182,Nehru Enclave,15510,21:50:36,21:50:56,9,upward,12378.613
183,Greater Kailash,15510,21:53:15,21:53:35,10,upward,13737.647
184,Chirag Delhi,15510,21:55:20,21:55:40,11,upward,14563.604
185,Panchsheel Park,15510,21:57:24,21:57:44,12,upward,15478.074
59,Hauz Khas,15510,22:00:13,22:00:33,13,upward,16891.973
81,Botanical Garden,15511,21:31:10,21:31:30,0,upward,0.0
161,Okhla Bird Sanctuary,15511,21:35:02,21:35:22,1,upward,2003.493
162,Kalindi Kunj,15511,21:37:57,21:38:17,2,upward,3589.032
163,Jasola Vihar Shaheen Bagh,15511,21:41:29,21:41:49,3,upward,5593.097
164,Okhla Vihar,15511,21:44:50,21:45:10,4,upward,7428.589
165,Jamia Millia Islamia,15511,21:47:37,21:47:57,5,upward,8372.665
166,Sukhdev Vihar,15511,21:50:30,21:50:50,6,upward,9604.107
167,Okhla NSIC,15511,21:53:08,21:53:28,7,upward,10754.323
131,Kalkaji Mandir,15511,21:55:25,21:55:45,8,upward,11547.502
182,Nehru Enclave,15511,21:57:21,21:57:41,9,upward,12378.613
183,Greater Kailash,15511,22:00:00,22:00:20,10,upward,13737.647
184,Chirag Delhi,15511,22:02:05,22:02:25,11,upward,14563.604
185,Panchsheel Park,15511,22:04:09,22:04:29,12,upward,15478.074
59,Hauz Khas,15511,22:06:58,22:07:18,13,upward,16891.973
81,Botanical Garden,15512,21:37:55,21:38:15,0,upward,0.0
161,Okhla Bird Sanctuary,15512,21:41:47,21:42:07,1,upward,2003.493
162,Kalindi Kunj,15512,21:44:42,21:45:02,2,upward,3589.032
163,Jasola Vihar Shaheen Bagh,15512,21:48:14,21:48:34,3,upward,5593.097
164,Okhla Vihar,15512,21:51:35,21:51:55,4,upward,7428.589
165,Jamia Millia Islamia,15512,21:54:22,21:54:42,5,upward,8372.665
166,Sukhdev Vihar,15512,21:57:15,21:57:35,6,upward,9604.107
167,Okhla NSIC,15512,21:59:53,22:00:13,7,upward,10754.323
131,Kalkaji Mandir,15512,22:02:10,22:02:30,8,upward,11547.502
182,Nehru Enclave,15512,22:04:06,22:04:26,9,upward,12378.613
183,Greater Kailash,15512,22:06:45,22:07:05,10,upward,13737.647
184,Chirag Delhi,15512,22:08:50,22:09:10,11,upward,14563.604
185,Panchsheel Park,15512,22:10:54,22:11:14,12,upward,15478.074
59,Hauz Khas,15512,22:13:43,22:14:03,13,upward,16891.973
81,Botanical Garden,15513,21:44:40,21:45:00,0,upward,0.0
161,Okhla Bird Sanctuary,15513,21:48:32,21:48:52,1,upward,2003.493
162,Kalindi Kunj,15513,21:51:27,21:51:47,2,upward,3589.032
163,Jasola Vihar Shaheen Bagh,15513,21:54:59,21:55:19,3,upward,5593.097
164,Okhla Vihar,15513,21:58:20,21:58:40,4,upward,7428.589
165,Jamia Millia Islamia,15513,22:01:07,22:01:27,5,upward,8372.665
166,Sukhdev Vihar,15513,22:04:00,22:04:20,6,upward,9604.107
167,Okhla NSIC,15513,22:06:38,22:06:58,7,upward,10754.323
131,Kalkaji Mandir,15513,22:08:55,22:09:15,8,upward,11547.502
182,Nehru Enclave,15513,22:10:51,22:11:11,9,upward,12378.613
183,Greater Kailash,15513,22:13:30,22:13:50,10,upward,13737.647
184,Chirag Delhi,15513,22:15:35,22:15:55,11,upward,14563.604
185,Panchsheel Park,15513,22:17:39,22:17:59,12,upward,15478.074
59,Hauz Khas,15513,22:20:28,22:20:48,13,upward,16891.973
81,Botanical Garden,15514,21:51:25,21:51:45,0,upward,0.0
161,Okhla Bird Sanctuary,15514,21:55:17,21:55:37,1,upward,2003.493
162,Kalindi Kunj,15514,21:58:12,21:58:32,2,upward,3589.032
163,Jasola Vihar Shaheen Bagh,15514,22:01:44,22:02:04,3,upward,5593.097
164,Okhla Vihar,15514,22:05:05,22:05:25,4,upward,7428.589
165,Jamia Millia Islamia,15514,22:07:52,22:08:12,5,upward,8372.665
166,Sukhdev Vihar,15514,22:10:45,22:11:05,6,upward,9604.107
167,Okhla NSIC,15514,22:13:23,22:13:43,7,upward,10754.323
131,Kalkaji Mandir,15514,22:15:40,22:16:00,8,upward,11547.502
182,Nehru Enclave,15514,22:17:36,22:17:56,9,upward,12378.613
183,Greater Kailash,15514,22:20:15,22:20:35,10,upward,13737.647
184,Chirag Delhi,15514,22:22:20,22:22:40,11,upward,14563.604
185,Panchsheel Park,15514,22:24:24,22:24:44,12,upward,15478.074
59,Hauz Khas,15514,22:27:13,22:27:33,13,upward,16891.973
81,Botanical Garden,15515,21:58:10,21:58:30,0,upward,0.0
161,Okhla Bird Sanctuary,15515,22:02:02,22:02:22,1,upward,2003.493
162,Kalindi Kunj,15515,22:04:57,22:05:17,2,upward,3589.032
163,Jasola Vihar Shaheen Bagh,15515,22:08:29,22:08:49,3,upward,5593.097
164,Okhla Vihar,15515,22:11:50,22:12:10,4,upward,7428.589
165,Jamia Millia Islamia,15515,22:14:37,22:14:57,5,upward,8372.665
166,Sukhdev Vihar,15515,22:17:30,22:17:50,6,upward,9604.107
167,Okhla NSIC,15515,22:20:08,22:20:28,7,upward,10754.323
131,Kalkaji Mandir,15515,22:22:25,22:22:45,8,upward,11547.502
182,Nehru Enclave,15515,22:24:21,22:24:41,9,upward,12378.613
183,Greater Kailash,15515,22:27:00,22:27:20,10,upward,13737.647
184,Chirag Delhi,15515,22:29:05,22:29:25,11,upward,14563.604
185,Panchsheel Park,15515,22:31:09,22:31:29,12,upward,15478.074
59,Hauz Khas,15515,22:33:58,22:34:18,13,upward,16891.973
81,Botanical Garden,15516,22:04:55,22:05:15,0,upward,0.0
161,Okhla Bird Sanctuary,15516,22:08:47,22:09:07,1,upward,2003.493
162,Kalindi Kunj,15516,22:11:42,22:12:02,2,upward,3589.032
163,Jasola Vihar Shaheen Bagh,15516,22:15:14,22:15:34,3,upward,5593.097
164,Okhla Vihar,15516,22:18:35,22:18:55,4,upward,7428.589
165,Jamia Millia Islamia,15516,22:21:22,22:21:42,5,upward,8372.665
166,Sukhdev Vihar,15516,22:24:15,22:24:35,6,upward,9604.107
167,Okhla NSIC,15516,22:26:53,22:27:13,7,upward,10754.323
131,Kalkaji Mandir,15516,22:29:10,22:29:30,8,upward,11547.502
182,Nehru Enclave,15516,22:31:06,22:31:26,9,upward,12378.613
183,Greater Kailash,15516,22:33:45,22:34:05,10,upward,13737.647
184,Chirag Delhi,15516,22:35:50,22:36:10,11,upward,14563.604
185,Panchsheel Park,15516,22:37:54,22:38:14,12,upward,15478.074
59,Hauz Khas,15516,22:40:43,22:41:03,13,upward,16891.973
81,Botanical Garden,15517,22:11:40,22:12:00,0,upward,0.0
161,Okhla Bird Sanctuary,15517,22:15:32,22:15:52,1,upward,2003.493
162,Kalindi Kunj,15517,22:18:27,22:18:47,2,upward,3589.032
163,Jasola Vihar Shaheen Bagh,15517,22:21:59,22:22:19,3,upward,5593.097
164,Okhla Vihar,15517,22:25:20,22:25:40,4,upward,7428.589
165,Jamia Millia Islamia,15517,22:28:07,22:28:27,5,upward,8372.665
166,Sukhdev Vihar,15517,22:31:00,22:31:20,6,upward,9604.107
167,Okhla NSIC,15517,22:33:38,22:33:58,7,upward,10754.323
131,Kalkaji Mandir,15517,22:35:55,22:36:15,8,upward,11547.502
182,Nehru Enclave,15517,22:37:51,22:38:11,9,upward,12378.613
183,Greater Kailash,15517,22:40:30,22:40:50,10,upward,13737.647
184,Chirag Delhi,15517,22:42:35,22:42:55,11,upward,14563.604
185,Panchsheel Park,15517,22:44:39,22:44:59,12,upward,15478.074
59,Hauz Khas,15517,22:47:28,22:47:48,13,upward,16891.973
81,Botanical Garden,15518,22:18:25,22:18:45,0,upward,0.0
161,Okhla Bird Sanctuary,15518,22:22:17,22:22:37,1,upward,2003.493
162,Kalindi Kunj,15518,22:25:12,22:25:32,2,upward,3589.032
163,Jasola Vihar Shaheen Bagh,15518,22:28:44,22:29:04,3,upward,5593.097
164,Okhla Vihar,15518,22:32:05,22:32:25,4,upward,7428.589
165,Jamia Millia Islamia,15518,22:34:52,22:35:12,5,upward,8372.665
166,Sukhdev Vihar,15518,22:37:45,22:38:05,6,upward,9604.107
167,Okhla NSIC,15518,22:40:23,22:40:43,7,upward,10754.323
131,Kalkaji Mandir,15518,22:42:40,22:43:00,8,upward,11547.502
182,Nehru Enclave,15518,22:44:36,22:44:56,9,upward,12378.613
183,Greater Kailash,15518,22:47:15,22:47:35,10,upward,13737.647
184,Chirag Delhi,15518,22:49:20,22:49:40,11,upward,14563.604
185,Panchsheel Park,15518,22:51:24,22:51:44,12,upward,15478.074
59,Hauz Khas,15518,22:54:13,22:54:33,13,upward,16891.973
81,Botanical Garden,15519,22:25:10,22:25:30,0,upward,0.0
161,Okhla Bird Sanctuary,15519,22:29:02,22:29:22,1,upward,2003.493
162,Kalindi Kunj,15519,22:31:57,22:32:17,2,upward,3589.032
163,Jasola Vihar Shaheen Bagh,15519,22:35:29,22:35:49,3,upward,5593.097
164,Okhla Vihar,15519,22:38:50,22:39:10,4,upward,7428.589
165,Jamia Millia Islamia,15519,22:41:37,22:41:57,5,upward,8372.665
166,Sukhdev Vihar,15519,22:44:30,22:44:50,6,upward,9604.107
167,Okhla NSIC,15519,22:47:08,22:47:28,7,upward,10754.323
131,Kalkaji Mandir,15519,22:49:25,22:49:45,8,upward,11547.502
182,Nehru Enclave,15519,22:51:21,22:51:41,9,upward,12378.613
183,Greater Kailash,15519,22:54:00,22:54:20,10,upward,13737.647
184,Chirag Delhi,15519,22:56:05,22:56:25,11,upward,14563.604
185,Panchsheel Park,15519,22:58:09,22:58:29,12,upward,15478.074
59,Hauz Khas,15519,23:00:58,23:01:18,13,upward,16891.973
81,Botanical Garden,15520,22:31:55,22:32:15,0,upward,0.0
161,Okhla Bird Sanctuary,15520,22:35:47,22:36:07,1,upward,2003.493
162,Kalindi Kunj,15520,22:38:42,22:39:02,2,upward,3589.032
163,Jasola Vihar Shaheen Bagh,15520,22:42:14,22:42:34,3,upward,5593.097
164,Okhla Vihar,15520,22:45:35,22:45:55,4,upward,7428.589
165,Jamia Millia Islamia,15520,22:48:22,22:48:42,5,upward,8372.665
166,Sukhdev Vihar,15520,22:51:15,22:51:35,6,upward,9604.107
167,Okhla NSIC,15520,22:53:53,22:54:13,7,upward,10754.323
131,Kalkaji Mandir,15520,22:56:10,22:56:30,8,upward,11547.502
182,Nehru Enclave,15520,22:58:06,22:58:26,9,upward,12378.613
183,Greater Kailash,15520,23:00:45,23:01:05,10,upward,13737.647
184,Chirag Delhi,15520,23:02:50,23:03:10,11,upward,14563.604
185,Panchsheel Park,15520,23:04:54,23:05:14,12,upward,15478.074
59,Hauz Khas,15520,23:07:43,23:08:03,13,upward,16891.973
81,Botanical Garden,15521,22:38:40,22:39:00,0,upward,0.0
161,Okhla Bird Sanctuary,15521,22:42:32,22:42:52,1,upward,2003.493
162,Kalindi Kunj,15521,22:45:27,22:45:47,2,upward,3589.032
163,Jasola Vihar Shaheen Bagh,15521,22:48:59,22:49:19,3,upward,5593.097
164,Okhla Vihar,15521,22:52:20,22:52:40,4,upward,7428.589
165,Jamia Millia Islamia,15521,22:55:07,22:55:27,5,upward,8372.665
166,Sukhdev Vihar,15521,22:58:00,22:58:20,6,upward,9604.107
167,Okhla NSIC,15521,23:00:38,23:00:58,7,upward,10754.323
131,Kalkaji Mandir,15521,23:02:55,23:03:15,8,upward,11547.502
182,Nehru Enclave,15521,23:04:51,23:05:11,9,upward,12378.613
183,Greater Kailash,15521,23:07:30,23:07:50,10,upward,13737.647
184,Chirag Delhi,15521,23:09:35,23:09:55,11,upward,14563.604
185,Panchsheel Park,15521,23:11:39,23:11:59,12,upward,15478.074
59,Hauz Khas,15521,23:14:28,23:14:48,13,upward,16891.973
81,Botanical Garden,15522,22:45:25,22:45:45,0,upward,0.0
161,Okhla Bird Sanctuary,15522,22:49:17,22:49:37,1,upward,2003.493
162,Kalindi Kunj,15522,22:52:12,22:52:32,2,upward,3589.032
163,Jasola Vihar Shaheen Bagh,15522,22:55:44,22:56:04,3,upward,5593.097
164,Okhla Vihar,15522,22:59:05,22:59:25,4,upward,7428.589
165,Jamia Millia Islamia,15522,23:01:52,23:02:12,5,upward,8372.665
166,Sukhdev Vihar,15522,23:04:45,23:05:05,6,upward,9604.107
167,Okhla NSIC,15522,23:07:23,23:07:43,7,upward,10754.323
131,Kalkaji Mandir,15522,23:09:40,23:10:00,8,upward,11547.502
182,Nehru Enclave,15522,23:11:36,23:11:56,9,upward,12378.613
183,Greater Kailash,15522,23:14:15,23:14:35,10,upward,13737.647
184,Chirag Delhi,15522,23:16:20,23:16:40,11,upward,14563.604
185,Panchsheel Park,15522,23:18:24,23:18:44,12,upward,15478.074
59,Hauz Khas,15522,23:21:13,23:21:33,13,upward,16891.973
81,Botanical Garden,15523,22:52:10,22:52:30,0,upward,0.0
161,Okhla Bird Sanctuary,15523,22:56:02,22:56:22,1,upward,2003.493
162,Kalindi Kunj,15523,22:58:57,22:59:17,2,upward,3589.032
163,Jasola Vihar Shaheen Bagh,15523,23:02:29,23:02:49,3,upward,5593.097
164,Okhla Vihar,15523,23:05:50,23:06:10,4,upward,7428.589
165,Jamia Millia Islamia,15523,23:08:37,23:08:57,5,upward,8372.665
166,Sukhdev Vihar,15523,23:11:30,23:11:50,6,upward,9604.107
167,Okhla NSIC,15523,23:14:08,23:14:28,7,upward,10754.323
131,Kalkaji Mandir,15523,23:16:25,23:16:45,8,upward,11547.502
182,Nehru Enclave,15523,23:18:21,23:18:41,9,upward,12378.613
183,Greater Kailash,15523,23:21:00,23:21:20,10,upward,13737.647
184,Chirag Delhi,15523,23:23:05,23:23:25,11,upward,14563.604
185,Panchsheel Park,15523,23:25:09,23:25:29,12,upward,15478.074
59,Hauz Khas,15523,23:27:58,23:28:18,13,upward,16891.973
81,Botanical Garden,15524,22:58:55,22:59:15,0,upward,0.0
161,Okhla Bird Sanctuary,15524,23:02:47,23:03:07,1,upward,2003.493
162,Kalindi Kunj,15524,23:05:42,23:06:02,2,upward,3589.032
163,Jasola Vihar Shaheen Bagh,15524,23:09:14,23:09:34,3,upward,5593.097
164,Okhla Vihar,15524,23:12:35,23:12:55,4,upward,7428.589
165,Jamia Millia Islamia,15524,23:15:22,23:15:42,5,upward,8372.665
166,Sukhdev Vihar,15524,23:18:15,23:18:35,6,upward,9604.107
167,Okhla NSIC,15524,23:20:53,23:21:13,7,upward,10754.323
131,Kalkaji Mandir,15524,23:23:10,23:23:30,8,upward,11547.502
182,Nehru Enclave,15524,23:25:06,23:25:26,9,upward,12378.613
183,Greater Kailash,15524,23:27:45,23:28:05,10,upward,13737.647
184,Chirag Delhi,15524,23:29:50,23:30:10,11,upward,14563.604
185,Panchsheel Park,15524,23:31:54,23:32:14,12,upward,15478.074
59,Hauz Khas,15524,23:34:43,23:35:03,13,upward,16891.973
81,Botanical Garden,15525,23:05:40,23:06:00,0,upward,0.0
161,Okhla Bird Sanctuary,15525,23:09:32,23:09:52,1,upward,2003.493
162,Kalindi Kunj,15525,23:12:27,23:12:47,2,upward,3589.032
163,Jasola Vihar Shaheen Bagh,15525,23:15:59,23:16:19,3,upward,5593.097
164,Okhla Vihar,15525,23:19:20,23:19:40,4,upward,7428.589
165,Jamia Millia Islamia,15525,23:22:07,23:22:27,5,upward,8372.665
166,Sukhdev Vihar,15525,23:25:00,23:25:20,6,upward,9604.107
167,Okhla NSIC,15525,23:27:38,23:27:58,7,upward,10754.323
131,Kalkaji Mandir,15525,23:29:55,23:30:15,8,upward,11547.502
182,Nehru Enclave,15525,23:31:51,23:32:11,9,upward,12378.613
183,Greater Kailash,15525,23:34:30,23:34:50,10,upward,13737.647
184,Chirag Delhi,15525,23:36:35,23:36:55,11,upward,14563.604
185,Panchsheel Park,15525,23:38:39,23:38:59,12,upward,15478.074
59,Hauz Khas,15525,23:41:28,23:41:48,13,upward,16891.973
